Company Name,Latitude,Longitude,Address,City,State,Country,Industry,Revenue,Website,Phone,Email,Potential,Company Type,Product Category,Product Name,Employee,Employee Details
Himmatsingka Linens,12.963383,76.1285508,"Hassan SEZ, Hassan, Karnataka, India",Hassan,Karnataka,India,Textile,,http://www.himatsingka.com,-22377989,info@himatsingka.com,"282000.0, 170000.0",Manufacturer,"""woven""","""Bedding, drapery, upholstery fabrics""",,
RSR Mohata (RSR Mohota Mills),20.745319,78.6021946,"Hinganghat, Wardha, Maharashtra, India",Wardha,Maharashtra,India,Textile,,http://www.rsrmmohota.com,-251344,info@rsrmmohota.com,"276000.0, 167000.0",Manufacturer,"""woven""","""Yarn, grey and processed fabrics""",,
Just Textile,18.9487379,72.8288826,"Kalbadevi, Mumbai, Maharashtra, India",Mumbai,Maharashtra,India,Textile,,Not Available,Not Available,Not Available,"156000.0, 182000.0",Manufacturer,"""woven""","""Fabrics""",,
Babilon,21.1834557,72.8304312,"Ring Road, Surat, Gujarat, India",Surat,Gujarat,India,Textile,,Not Available,Not Available,Not Available,"150000.0, 179000.0",Manufacturer,"""woven""","""Sarees, ethnic wear""",,
Ruby Mills,19.0177989,72.847812,"Dadar, Mumbai, Maharashtra, India",Mumbai,Maharashtra,India,Textile,,http://www.rubymills.com,-24387708,info@rubymills.com,"282000.0, 191000.0",Manufacturer,"""woven""","""Cotton and blended fabrics, microdot interlinings""",,
Diamond,23.0586998,72.6650855,"Nikol Road, Ahmedabad, Gujarat, India",Ahmedabad,Gujarat,India,Textile,,Not Available,-22703321,Not Available,"197926.5, 131951.0",Manufacturer,"""woven""","""Cotton fabrics, synthetic fabrics (Diamond Textile Mills)""",,
Dahanu,19.9951474,72.8290262,"Dahanu Road, Palghar, Maharashtra, India",Palghar,Maharashtra,India,Textile,,Not Available,Not Available,Not Available,"263902.0, 197926.5",Cluster,"""woven""","""Textile weaving, balloon manufacturing cluster""",,
Nissan,21.1834557,72.8304312,"Ring Road, Surat, Gujarat, India",Surat,Gujarat,India,Textile,,Not Available,Not Available,Not Available,"197926.5, 158341.2",Exporter,"""woven""","""Fabrics, sarees""",,
Idrish,22.9962406,72.5817855,"Danilimda, Ahmedabad, Gujarat, India",Ahmedabad,Gujarat,India,Textile,,Not Available,Not Available,Not Available,"263902.0, 197926.5",Service Provider,"""woven""","""Fabric dyeing, washing""",,
Chamunda,22.9921815,72.5705126,"Piplaj-Pirana Road, Ahmedabad, Gujarat, India",Ahmedabad,Gujarat,India,Textile,,Not Available,-25715543,Not Available,"144000.0, 162000.0",Service Provider,"""woven""","""Fabric processing (Chamunda Processors)""",,
Asopwala,23.0974358,72.5314579,"Narol-Sarkhej Highway, Ahmedabad, Gujarat, India",Ahmedabad,Gujarat,India,Textile,,Not Available,Not Available,Not Available,"197926.5, 158341.2",Service Provider,"""woven""",,,
Alok Textile,18.9987555,72.8292074,"Peninsula Business Park, Lower Parel, Mumbai, Maharashtra, India",Mumbai,Maharashtra,India,Textile,,http://www.alokind.com,-61786931,info@alokind.com,"288000.0, 194000.0",Manufacturer,"""woven""","""Cotton yarn, apparel fabrics, home textiles""",,
Nisha Textiles,22.9904751,72.5825461,"Narol Industrial Area, Ahmedabad, Gujarat, India",Ahmedabad,Gujarat,India,Textile,,Not Available,Not Available,Not Available,"162000.0, 171000.0",Service Provider,"""woven""","""Fabric processing""",,
Foram Textiles,23.0974358,72.5314579,"Narol-Sarkhej Highway, Ahmedabad, Gujarat, India",Ahmedabad,Gujarat,India,Textile,,Not Available,-25736654,Not Available,"131951.0, 105560.8",Service Provider,"""woven""","""Textile processing""",,
Sheetal Textiles,22.9904751,72.5825461,"Narol Industrial Area, Ahmedabad, Gujarat, India",Ahmedabad,Gujarat,India,Textile,,Not Available,Not Available,Not Available,"131951.0, 105560.8",Service Provider,"""woven""","""Fabric dyeing, printing""",,
Ashirwad Texprint,23.0974358,72.5314579,"Narol-Sarkhej Highway, Ahmedabad, Gujarat, India",Ahmedabad,Gujarat,India,Textile,,Not Available,-25737765,Not Available,"197926.5, 158341.2",Service Provider,"""woven""","""Fabric printing, rotary printing""",,
AR Textiles,22.9641614,72.5903337,"Narol, Ahmedabad, Gujarat, India",Ahmedabad,Gujarat,India,Textile,,Not Available,Not Available,Not Available,"131951.0, 105560.8",Service Provider,"""woven""","""Textile processing""",,
Nikishu,22.9904751,72.5825461,"Narol Industrial Area, Ahmedabad, Gujarat, India",Ahmedabad,Gujarat,India,Textile,,Not Available,Not Available,Not Available,"237511.80000000002, 197926.5",Service Provider,"""woven""","""Fabric processing""",,
Ventri Engeering,11.0320836,77.0155532,"Sri Lakshmi Nagar, Coimbatore, Tamil Nadu, India",Coimbatore,Tamil Nadu,India,Textile,,http://www.vetriengineers.com,-2513671,sales@vetriengineers.com,"276000.0, 174000.0",Manufacturer,"""woven""","""Textile machinery components (Likely Vetri Engineers)""",,
Hi-Tech (Hi-Tech Speciality Fabrics),22.264659,73.191694,"Plot No 5, GIDC, Vadodara, Gujarat, India",Vadodara,Gujarat,India,Textile,,Not Available,Not Available,Not Available,"174000.0, 177000.0",Manufacturer,"""woven""","""Fabric dyeing, printing""",,
Dhanlaxmi Fabrics,19.2812547,73.0482912,"Bhiwandi, Thane, Maharashtra, India",Thane,Maharashtra,India,Textile,,http://www.dfl.net.in,-25862153,info@dfl.net.in,"276000.0, 174000.0",Service Provider,"""woven""","""Fabric processing, printing""",,
Rytham (Rhythm Textiles),21.1834557,72.8304312,"Ring Road, Surat, Gujarat, India",Surat,Gujarat,India,Textile,,Not Available,Not Available,Not Available,"156000.0, 182000.0",Trader,"""woven""","""Synthetic fabrics""",,
VHM Industries,19.1386175,72.8451695,"S.V. Road, Goregaon, Mumbai, Maharashtra, India",Mumbai,Maharashtra,India,Textile,,http://www.vhmgroup.in,-28743264,info@vhmgroup.in,"282000.0, 191000.0",Manufacturer,"""woven""","""Suiting fabrics, shirting""",,
Piyush Dyeing,21.1399524,72.8367776,"Pandesara GIDC, Surat, Gujarat, India",Surat,Gujarat,India,Textile,,Not Available,Not Available,Not Available,"168000.0, 176000.0",Service Provider,"""woven""","""Dyeing and printing""",,
Bishen (Bishan Dyeing),19.204258,73.0979762,"MIDC, Dombivli, Maharashtra, India",Dombivli,Maharashtra,India,Textile,,Not Available,Not Available,Not Available,"162000.0, 166000.0",Service Provider,"""woven""","""Textile processing""",,
Pal Fashion,19.793138,72.7363158,"Tarapur MIDC, Boisar, Maharashtra, India",Boisar,Maharashtra,India,Textile,,Not Available,-273545,Not Available,"156000.0, 160000.0",Manufacturer,"""woven""","""Embroidery, schiffli, processed fabrics""",,
Cryplon Synthetics Pvt. Ltd.,25.3407388,74.6313183,"Bhilwara, Bhilwara, Rajasthan, India",Bhilwara,Rajasthan,India,Textile,,Not Available,-244724,Not Available,"162000.0, 158000.0",Manufacturer,"""woven""","""Synthetic grey fabrics""",,
Angad Pal Industries,19.2029903,72.8494218,"Kandivali, Mumbai, Maharashtra, India",Mumbai,Maharashtra,India,Textile,,http://www.angadpal.com,-28844375,info@angadpal.com,"276000.0, 186000.0",Manufacturer,"""woven""","""Suitings, shirtings, uniform fabrics""",,
"Raymonds, Chindvada",22.057437,78.9381729,"Chhindwara, Chhindwara, Madhya Pradesh, India",Chhindwara,Madhya Pradesh,India,Textile,,http://www.raymond.com,-229071,Not Available,"294000.0, 178000.0",Manufacturer,"""woven""","""Worsted suiting, wool fabrics (Raymond Ltd)""",,
"Vardhman Fabrics Ltd, Budhni",22.7735286,77.6364299,"Pilikarar, Budhni, Budhni, Madhya Pradesh, India",Budhni,Madhya Pradesh,India,Textile,,http://www.vardhman.com,-240806,mngt@vardhman.com,"294000.0, 182000.0",Manufacturer,"""woven""","""Greige and processed fabrics, yarn (Central India)""",,
Kanti fashion,21.1834557,72.8304312,"Ring Road, Surat, Gujarat, India",Surat,Gujarat,India,Textile,,Not Available,Not Available,Not Available,"158341.2, 131951.0",Trader,"""woven""","""Sarees, dress materials""",,
Puspanjali,21.1895045,72.834591,"Salabatpura, Surat, Gujarat, India",Surat,Gujarat,India,Textile,,Not Available,-2334614,Not Available,"197926.5, 131951.0",Service Provider,"""woven""","""Fabric printing (Pushpanjali Prints)""",,
Kadmawala,22.967121,72.6469543,"GIDC, Vatva, Ahmedabad, Gujarat, India",Ahmedabad,Gujarat,India,Textile,,Not Available,-25832210,Not Available,"263902.0, 197926.5",Manufacturer,"""woven""","""Textile processing""",,
Vepar,21.1834557,72.8304312,"Ring Road, Surat, Gujarat, India",Surat,Gujarat,India,Textile,,Not Available,Not Available,Not Available,"26390.2, 13195.1",Trader,"""woven""","""Fabric trading""",,
"Raymonds, Udvada",20.5997463,72.9565484,"N.H. No. 8, Khadki, Udvada / Valsad, Gujarat, India",Udvada / Valsad,Gujarat,India,Textile,,http://www.raymond.com,-2410169,Not Available,"294000.0, 180000.0",Manufacturer,"""woven""","""Worsted suiting fabrics (West India)""",,
Valient Glass,18.9487455,72.8288949,"Kalbadevi Road, Mumbai, Maharashtra, India",Mumbai,Maharashtra,India,Textile,,http://www.valiantglass.com,-22001042,Not Available,"288000.0, 191000.0",Manufacturer,"""woven""","""Bed sheets, cotton fabrics (Valiant Glass Works Ltd - Textile Division)""",,
Sunny International Ltd,28.6051563,77.3533677,"Sector 57, Noida, Uttar Pradesh, India",Noida,Uttar Pradesh,India,Textile,,Not Available,Not Available,Not Available,"156000.0, 164000.0",Exporter,"""woven""","""Fashion apparel""",,
Shri Jagdamba Textiles,31.6339793,74.8722642,"Amritsar, Amritsar, Punjab, India",Amritsar,Punjab,India,Textile,,Not Available,Not Available,Not Available,"150000.0, 160000.0",Manufacturer,"""woven""","""Woolen fabrics, shawls""",,
Shri Lakshmi Cotsyn,26.449923,80.3318736,"Malwan, Fatehpur, Kanpur, Uttar Pradesh, India",Kanpur,Uttar Pradesh,India,Textile,,Not Available,-2304865,Not Available,"144000.0, 148000.0",Manufacturer,"""woven""","""Bed linen, denim, terry towels (Note: Insolvency status)""",,
Samtex Desinz,28.5413965,77.3970354,"Noida Special Economic Zone, Noida, Uttar Pradesh, India",Noida,Uttar Pradesh,India,Textile,,http://www.samtexfashions.com,-2561140,info@samtex.com,"282000.0, 176000.0",Exporter,"""woven""","""Men's and women's apparel (Samtex Fashions)""",,
Partap Denim,30.876082,75.819765,"90-91, Sector 25, Phase-II, Panipat / Ludhiana, Haryana / Punjab, India",Panipat / Ludhiana,Haryana / Punjab,India,Textile,,http://www.partapgroup.com,-2670089,info@partapgroup.com,"294000.0, 182000.0",Manufacturer,"""woven""","""Denim fabrics (Partap Group)""",,
Kadiri Wovens,14.6184836,77.6363222,"Kadiri Road, Anantapur / Tirupur, Andhra Pradesh / TN, India",Anantapur / Tirupur,Andhra Pradesh / TN,India,Textile,,http://www.kadiriwovens.com,-229514,info@kadiriwovens.com,"276000.0, 174000.0",Manufacturer,"""woven""","""Bed linen, home furnishings""",,
Jayabalaji Dyeing ,11.05276,77.3585676,"Veerapandi, Tirupur, Tamil Nadu, India",Tirupur,Tamil Nadu,India,Textile,,Not Available,Not Available,Not Available,"224316.7, 224316.7",Service Provider,"""woven""","""Fabric dyeing""",,
Jayasree Textile Processorrs ,11.3790235,77.8949435,"Tiruchengode, Erode, Tamil Nadu, India",Erode,Tamil Nadu,India,Textile,,Not Available,Not Available,Not Available,"65975.5, 65975.5",Service Provider,"""woven""","""Textile processing""",,
"Jayavel Dyeing, ",11.3669692,77.76042,"Pallipalayam, Erode, Tamil Nadu, India",Erode,Tamil Nadu,India,Textile,,Not Available,Not Available,Not Available,"65975.5, 65975.5",Service Provider,"""woven""","""Yarn dyeing""",,
Laxmi Dyeing ,11.3669692,77.76042,"Pallipalayam, Erode, Tamil Nadu, India",Erode,Tamil Nadu,India,Textile,,Not Available,Not Available,Not Available,"65975.5, 65975.5",Service Provider,"""woven""","""Textile dyeing""",,
Madhura Dyeing ,11.3669692,77.76042,"Pallipalayam, Erode, Tamil Nadu, India",Erode,Tamil Nadu,India,Textile,,Not Available,Not Available,Not Available,"52780.4, 52780.4",Service Provider,"""woven""","""Textile dyeing""",,
Maruthi Process ,11.3673592,77.7076747,"Bhavani Road, Erode, Tamil Nadu, India",Erode,Tamil Nadu,India,Textile,,Not Available,Not Available,Not Available,"52780.4, 52780.4",Service Provider,"""woven""","""Textile processing""",,
R.K.Exports,11.0928263,77.3353728,"Karuvampalayam, Tirupur, Tamil Nadu, India",Tirupur,Tamil Nadu,India,Textile,,http://www.rkexports.com,-2232552,info@rkexports.com,"65975.5, 65975.5",Exporter,"""woven""","""Knitted ""Garment""""",,
"Shivam Devansh,Ballabhgarg",28.326328,77.3056076,"Plot No. 55, Sector 25, Ballabgarh, Ballabgarh, Haryana, India",Ballabgarh,Haryana,India,Textile,,Not Available,Not Available,Not Available,"150000.0, 158000.0",Service Provider,"""woven""","""Textile processing, dyeing""",,
"SPL Prints,Faridabad",28.3620815,77.3202746,"Plot No. 21, Sector 6, Faridabad, Faridabad, Haryana, India",Faridabad,Haryana,India,Textile,,https://www.splindustries.com,-2240449,admin@splindustries.com,"282000.0, 176000.0",Service Provider,"""woven""","""Fabric printing services (Unit of SPL Industries)""",,
"Creative Prints,Faridabad",28.3508924,77.3053926,"Plot No. 222, Sector 24, Faridabad, Haryana, India",Faridabad,Haryana,India,Textile,,Not Available,Not Available,Not Available,"156000.0, 164000.0",Service Provider,"""woven""","""Textile printing, screen printing""",,
Dharani Fab Link ,11.3235643,77.7460413,"Karur Bypass Road, Erode, Tamil Nadu, India",Erode,Tamil Nadu,India,Textile,,Not Available,Not Available,Not Available,"150000.0, 162000.0",Trader,"""woven""","""Fabric trading""",,
Malwa Industies,30.8960287,75.8737288,"Industrial Area A, Ludhiana, Punjab, India",Ludhiana,Punjab,India,Textile,,http://www.malwagroup.com,-2224514,info@malwagroup.com,"288000.0, 182000.0",Manufacturer,"""woven""","""Denim fabrics, cotton yarn (Malwa Group)""",,
Mahadev Fabrics,30.9235264,75.868908,"Sunder Nagar, Ludhiana, Punjab, India",Ludhiana,Punjab,India,Textile,,Not Available,Not Available,Not Available,"150000.0, 168000.0",Manufacturer,"""woven""","""Knitted fabrics""",,
HANDFAB HOME INDIA,29.3528811,76.9844677,"Sector 29, HUDA, Panipat, Haryana, India",Panipat,Haryana,India,Textile,,http://www.handfab.in,-2660311,sales@handfab.in,"282000.0, 176000.0",Manufacturer,"""woven""","""Home furnishings, floor coverings""",,
Jagdamba Knits,30.9186189,75.8588421,"Wait Ganj, Ludhiana, Punjab, India",Ludhiana,Punjab,India,Textile,,Not Available,Not Available,Not Available,"150000.0, 168000.0",Manufacturer,"""woven""","""Knitwear, hosiery""",,
"Svarntex Prints,Kosi",27.7905048,77.4400297,"Kosi Kalan, Mathura, Kosi Kalan, Uttar Pradesh, India",Kosi Kalan,Uttar Pradesh,India,Textile,,Not Available,Not Available,Not Available,"150000.0, 156000.0",Service Provider,"""woven""","""Fabric printing, textile processing""",,
"RMP Processors,Ballabhgarg",28.3638363,77.3009445,"Plot No. 18, Sector 24, Faridabad, Ballabgarh, Haryana, India",Ballabgarh,Haryana,India,Textile,,Not Available,-4066815,Not Available,"156000.0, 164000.0",Service Provider,"""woven""","""Fabric dyeing, textile finishing""",,
"Haryana Tex Prints,faridabad",28.3403289,77.3052377,"Plot No. 14, Sector 25, Faridabad, Faridabad, Haryana, India",Faridabad,Haryana,India,Textile,,https://haryanatexprints.com,-4061272,info@haryanatexprints.com,"282000.0, 176000.0",Service Provider,"""woven""","""Fabric printing, rotary printing, ""Garment"" processing""",,
Sree Surya Textile Processors (Bhavani) ,11.3673592,77.7076747,"Bhavani Main Road, Erode, Tamil Nadu, India",Erode,Tamil Nadu,India,Textile,,Not Available,-234276,Not Available,"26390.2, 26390.2",Service Provider,"""woven""","""Textile processing""",,
Sri Vidya Mills ,11.3654266,77.6977674,"Sathy Road, Erode, Tamil Nadu, India",Erode,Tamil Nadu,India,Textile,,Not Available,Not Available,Not Available,"65975.5, 65975.5",Manufacturer,"""woven""","""Cotton fabrics""",,
Royaal Textiles Mills ,10.4491875,77.5185037,"Dindigul Road, Dindigul / Karur, Tamil Nadu, India",Dindigul / Karur,Tamil Nadu,India,Textile,,Not Available,Not Available,Not Available,"105560.8, 105560.8",Manufacturer,"""woven""","""Spinning, weaving""",,
S.P.M. Procesing Mills ,11.4362628,77.7232172,"Komarapalayam, Erode / Namakkal, Tamil Nadu, India",Erode / Namakkal,Tamil Nadu,India,Textile,,Not Available,Not Available,Not Available,"65975.5, 65975.5",Service Provider,"""woven""","""Fabric processing""",,
Samurai Textile Processors ,11.2746098,77.5827007,"Perundurai, Erode, Tamil Nadu, India",Erode,Tamil Nadu,India,Textile,,Not Available,Not Available,Not Available,"52780.4, 52780.4",Service Provider,"""woven""","""Textile processing""",,
Santhi Processing Unit (P) Ltd ,11.2584583,77.5532979,"Perundurai SIPCOT, Erode, Tamil Nadu, India",Erode,Tamil Nadu,India,Textile,,http://www.santhiprocessing.com,-238425,info@santhiprocessing.com,"52780.4, 52780.4",Service Provider,"""woven""","""Fabric dyeing and finishing""",,
JPC,28.6209681,77.3811702,"Sector 63, Noida, Uttar Pradesh, India",Noida,Uttar Pradesh,India,Textile,,Not Available,Not Available,Not Available,"144000.0, 156000.0",Manufacturer,"""woven""","""Cotton kurtis, ladies wear""",,
Grasim Bhiwani Textiles Ltd,28.8055234,76.1265077,"Bhiwani Textile Mills, BTM Road, Bhiwani, Haryana, India",Bhiwani,Haryana,India,Textile,,http://www.grasim.com,-244134,bhiwanimills@adityabirla.com,"294000.0, 182000.0",Manufacturer,"""woven""","""Poly-viscose fabrics, synthetic blended suiting (Aditya Birla Group)""",,
V.K.Processing Mills ,11.4470564,77.6839768,"Bhavani, Erode, Tamil Nadu, India",Erode,Tamil Nadu,India,Textile,,Not Available,Not Available,Not Available,"65975.5, 65975.5",Service Provider,"""woven""","""Textile processing""",,
Vaibhav Processing Mills Pvt Ltd ,11.2746098,77.5827007,"Perundurai, Erode, Tamil Nadu, India",Erode,Tamil Nadu,India,Textile,,Not Available,-238647,Not Available,"158341.2, 158341.2",Service Provider,"""woven""","""Fabric processing""",,
Jaya Vinayaga,11.0768662,77.3414274,"Palladam Road, Tirupur, Tamil Nadu, India",Tirupur,Tamil Nadu,India,Textile,,Not Available,Not Available,Not Available,"26390.2, 26390.2",Manufacturer,"""woven""","""Knitted fabrics""",,
Unifront Textile Processors,11.1348437,77.3426353,"Perumanallur Road, Tirupur, Tamil Nadu, India",Tirupur,Tamil Nadu,India,Textile,,http://www.unifront.in,-2480329,admin@unifront.in,"65975.5, 65975.5",Service Provider,"""woven""","""Dyeing and finishing""",,
CTA Apparels,28.6075627,77.3683319,"D-52, Sector 59, Noida, Uttar Pradesh, India",Noida,Uttar Pradesh,India,Textile,,http://www.ctaapparel.com,-4325584,info@ctaapparel.com,"282000.0, 176000.0",Exporter,"""woven""","""Woven and knitted ""Garment""""",,
Ramraj Cotton,11.1085242,77.3410656,"Tirupur, Tirupur, Tamil Nadu, India",Tirupur,Tamil Nadu,India,Textile,,http://www.ramrajcotton.in,-2244774,enquiry@ramrajcotton.in,"294000.0, 182000.0",Manufacturer,"""woven""","""Dhotis, shirts, ethnic wear""",,
Sree Suryodhaya Processors,11.3410364,77.7171642,"Erode, Erode, Tamil Nadu, India",Erode,Tamil Nadu,India,Textile,,Not Available,Not Available,Not Available,"150000.0, 162000.0",Service Provider,"""woven""","""Fabric processing""",,
BKS Textiles,10.9955767,77.2852097,"Palladam, Tirupur, Tamil Nadu, India",Tirupur,Tamil Nadu,India,Textile,,http://www.bkstextiles.in,-258608,info@bkstextiles.in,"282000.0, 176000.0",Manufacturer,"""woven""","""Woven fabrics, hospitality linens""",,
Naveena Prints,11.1085242,77.3410656,"Tirupur, Tirupur, Tamil Nadu, India",Tirupur,Tamil Nadu,India,Textile,,Not Available,Not Available,Not Available,"150000.0, 174000.0",Service Provider,"""woven""","""Textile printing""",,
CTM,22.9931695,72.630542,"CTM Cross Road, Amraiwadi, Ahmedabad, Gujarat, India",Ahmedabad,Gujarat,India,Textile,,https://www.ctm-textile.com,-25850888,info@ctm-textile.com,"461828.5, 395853.0",Service Provider,"""woven""","""Fabric processing, printing""",,
Ankur Textiles,23.0397085,72.642064,"Outside Raipur Gate, Ahmedabad, Gujarat, India",Ahmedabad,Gujarat,India,Textile,,https://www.arvind.com,-22168988,ankur@arvind.com,"263902.0, 237511.80000000002",Manufacturer,"""woven""","""Voiles, Cotton Fabrics (Division of Arvind Ltd)""",,
Asarva,23.0483771,72.616601,"Asarva Road, Near Railway Bridge, Ahmedabad, Gujarat, India",Ahmedabad,Gujarat,India,Textile,,http://www.asarvamills.com,-22163210,info@asarvamills.com,"131951.0, 79170.6",Manufacturer,"""woven""","""Cotton fabrics, yarn, shirting""",,
Mafatlal,19.0062481,72.8304099,"Kaledon Estate, PB Road, Worli, Mumbai, Maharashtra, India",Mumbai,Maharashtra,India,Textile,,https://www.mafatlals.com,-67713731,marketing@mafatlals.com,"395853.0, 329877.5",Manufacturer,"""woven""","""School uniforms, suiting, shirting, denim""",,
Mukesh,23.0974358,72.5314579,"Narol-Sarkhej Highway, Narol, Ahmedabad, Gujarat, India",Ahmedabad,Gujarat,India,Textile,,https://www.mukeshindustries.com,-25730288,info@mukeshindustries.com,"395853.0, 263902.0",Service Provider,"""woven""","""Fabric dyeing, printing, finishing""",,
Prem Processors,22.9921815,72.5705126,"Piplaj-Pirana Road, Ahmedabad, Gujarat, India",Ahmedabad,Gujarat,India,Textile,,Not Available,-25711222,Not Available,"105560.8, 65975.5",Service Provider,"""woven""","""Fabric processing, dyeing""",,
Komal,22.9921815,72.5705126,"Piplaj, Narol, Ahmedabad, Gujarat, India",Ahmedabad,Gujarat,India,Textile,,Not Available,Not Available,Not Available,"7834965.0, 7573799.5",Service Provider,"""knit""","""Fabric dyeing, printing (Komal Texfab)""",,
Sharada Terry Products,11.3027849,76.9383385,"Mettupalayam, Coimbatore, Tamil Nadu, India",Coimbatore,Tamil Nadu,India,Textile,,http://www.microcotton.com,-227496,info@microcotton.com,"150000.0, 174000.0",Manufacturer,"""knit""","""Luxury towels, bath linens (Micro Cotton)""",,
Shiny Knitwear,11.1085242,77.3410656,"Tirupur, Tirupur, Tamil Nadu, India",Tirupur,Tamil Nadu,India,Textile,,Not Available,Not Available,Not Available,"282000.0, 176000.0",Manufacturer,"""knit""","""Knitted ""Garment""""",,
Eveline Export-Ludhiana,30.9238738,75.8741137,"B-XXIV/4590, Sunder Nagar, G.T. Road, Ludhiana, Punjab, India",Ludhiana,Punjab,India,Textile,,http://www.evelineinternational.com,-2672080,info@evelineinternational.com,"10446620.0, 0.0",Manufacturer / Exporter,"""knit""","""Readymade ""Garment"", knitwear, t-shirts""",,
Sanchi Processor-Ludhiana,30.9169645,75.8946074,"Tajpur Road, Near Central Jail, Ludhiana, Punjab, India",Ludhiana,Punjab,India,Textile,,Not Available,Not Available,Not Available,"13058275.0, 0.0",Service Provider,"""knit""","""Fabric processing, finishing""",,
Shyam Tex-Ludhiana,30.958419,75.9010721,"Village Seera, Rahon Road, Ludhiana, Punjab, India",Ludhiana,Punjab,India,Textile,,Not Available,Not Available,Not Available,"150000.0, 168000.0",Manufacturer,"""knit""","""Knitted fabrics, textile trading""",,
Sunshine Dyeing-Ludhiana,30.9430991,75.8857621,"Village Bajra, Rahon Road, Ludhiana, Punjab, India",Ludhiana,Punjab,India,Textile,,Not Available,Not Available,Not Available,"150000.0, 168000.0",Service Provider,"""knit""","""Textile dyeing services""",,
Gulab Dyeing-Ludhiana,30.8919655,75.8592609,"Plot No. 25, Industrial Area-A, Ludhiana, Punjab, India",Ludhiana,Punjab,India,Textile,,Not Available,-2223971,Not Available,"156000.0, 170000.0",Service Provider,"""knit""","""Dyeing and printing of textiles""",,
Suvidhi Cotcyn-Ludhiana,30.8936568,75.9014687,"E-266, Phase IV, Focal Point, Ludhiana, Punjab, India",Ludhiana,Punjab,India,Textile,,Not Available,-2675270,Not Available,"156000.0, 170000.0",Manufacturer,"""knit""","""Yarn, fabrics""",,
A 1 Cottex-Ludhiana,30.900965,75.8572758,"Village Jhammat, Malaud, Ludhiana, Punjab, India",Ludhiana,Punjab,India,Textile,,Not Available,Not Available,Not Available,"150000.0, 164000.0",Manufacturer,"""knit""","""Cotton yarn, blended yarn""",,
Marvels Dyeing-Ludhiana,30.895561,75.873842,"Plot No. 898, Industrial Area-A, Ludhiana, Punjab, India",Ludhiana,Punjab,India,Textile,,Not Available,Not Available,Not Available,"156000.0, 170000.0",Service Provider,"""knit""","""Yarn dyeing, fabric processing""",,
Defiance knitting,19.1940919,73.2100247,"K-6, Additional Ambernath Industrial Area, MIDC, Ambernath, Maharashtra, India",Ambernath,Maharashtra,India,Textile,,Not Available,-2621204,defiance@bom3.vsnl.net.in,"15669930.0, 0.0",Manufacturer,"""knit""","""Knitted fabrics, hosiery cloth, bleaching & dyeing""",,
Innovative,28.6616565,77.3124395,"81 Vigyan Vihar, Delhi, Delhi, India",Delhi,Delhi,India,Textile,,https://innovativetextiles.com,-22149920,info@innovativetextile.co.in,"6267972.0, 0.0",Manufacturer,"""knit""","""Yarn, fabrics, textile products""",,
Venus Dyeing-Ludhiana,30.8923143,75.8653641,"205, Industrial Area-A, Ludhiana, Punjab, India",Ludhiana,Punjab,India,Textile,,Not Available,-2222207,Not Available,"156000.0, 170000.0",Service Provider,"""knit""","""Textile dyeing services""",,
Rainbow Dyeing-Ludhiana,30.9169645,75.8946074,"Tajpur Road, Guru Ram Dass Nagar, Ludhiana, Punjab, India",Ludhiana,Punjab,India,Textile,,Not Available,-9872422109,Not Available,"150000.0, 168000.0",Service Provider,"""knit""","""Yarn dyeing, fabric processing""",,
Centex-Ludhiana,30.879605,75.9158386,"C-156, Phase V, Focal Point, Ludhiana, Punjab, India",Ludhiana,Punjab,India,Textile,,https://www.centex.in,-2676071,info@centex.in,"282000.0, 176000.0",Manufacturer / Exporter,"""knit""","""Luxury scarves, stoles, shawls, fabrics""",,
Freelook Fashions,11.1243543,77.330369,"Avinashi Road, Tirupur, Tamil Nadu, India",Tirupur,Tamil Nadu,India,Textile,,http://www.freelookfashions.com,-2249218,info@freelookfashions.com,"417864.8, 417864.8",Manufacturer,"""knit""","""Men's apparel, casual wear""",,
Ashnoor Textile Mills,28.4268881,77.0080299,"Behrampur Road, Khandsa, Gurgaon, Haryana, India",Gurgaon,Haryana,India,Textile,,https://www.ashnoortex.com,-4809789,accounts@ashnoortex.com,"288000.0, 182000.0",Manufacturer,"""knit""","""Towels, terry fabrics""",,
Gogo International Pvt Ltd,11.1085242,77.3410656,"K.H. Road, Bangalore / Tirupur, Karnataka / TN, India",Bangalore / Tirupur,Karnataka / TN,India,Textile,,http://www.gogointernational.in,-22224433,info@gogointernational.in,"417864.8, 417864.8",Manufacturer,"""knit""","""Woven and knitted apparel""",,
Bir Horizon,28.5033664,77.4734461,"Plot No. 4, Udyog Vihar, Ecotech-II, Greater Noida, Uttar Pradesh, India",Greater Noida,Uttar Pradesh,India,Textile,,http://www.birhorizon.com,-2560329,info@birhorizon.com,"288000.0, 176000.0",Manufacturer,"""knit""","""Knitted ""Garment"", organic cotton apparel""",,
Eveline International,30.8770008,75.9051497,"Dhandari Kalan, G.T. Road, Ludhiana, Punjab, India",Ludhiana,Punjab,India,Textile,,http://www.evelineinternational.com,-5034514,eveline@evelineinternational.com,"282000.0, 176000.0",Manufacturer,"""knit""","""Knitted ""Garment"", thermal wear""",,
Forestar International P Ltd,30.900965,75.8572758,"Ludhiana, Ludhiana, Punjab, India",Ludhiana,Punjab,India,Textile,,Not Available,Not Available,Not Available,"150000.0, 168000.0",Exporter,"""knit""","""Apparel exports""",,
Inditex Textile Processors,11.1100942,77.3495315,"No. 52, Process Server Street, Tirupur, Tamil Nadu, India",Tirupur,Tamil Nadu,India,Textile,,Not Available,-9994912254,Not Available,"417864.8, 0.0",Service Provider,"""knit""","""Fabric dyeing and processing""",,
Oswal Dyeing-Ludhiana,30.896913,75.877343,"Plot No. 408, Industrial Area-A, Ludhiana, Punjab, India",Ludhiana,Punjab,India,Textile,,Not Available,-2223917,Not Available,"10446620.0, 0.0",Service Provider,"""knit""","""Wool dyeing, fabric dyeing services""",,
Pawan Dyeing-Ludhiana,30.8877426,75.8843106,"B-XXIX-1017, G.T. Road, Sherpur, Ludhiana, Punjab, India",Ludhiana,Punjab,India,Textile,,Not Available,-9814030525,Not Available,"9401958.0, 0.0",Service Provider,"""knit""","""Textile processing, dyeing services""",,
Divyaar Process,11.1130359,77.3431408,"Tirupur Industrial Estate, Tirupur, Tamil Nadu, India",Tirupur,Tamil Nadu,India,Textile,,Not Available,Not Available,Not Available,"626797.2, 522331.0",Service Provider,"""knit""","""Fabric processing""",,
Raagam Colours,11.05276,77.3585676,"Veerapandi, Tirupur, Tamil Nadu, India",Tirupur,Tamil Nadu,India,Textile,,Not Available,Not Available,Not Available,"261165.5, 208932.4",Service Provider,"""knit""","""Fabric dyeing""",,
Micro Colour makers,11.0425644,77.3123396,"Arulpuram, Tirupur, Tamil Nadu, India",Tirupur,Tamil Nadu,India,Textile,,Not Available,Not Available,Not Available,"208932.4, 156699.3",Service Provider,"""knit""","""Textile dyeing""",,
Cotton Blossom India Pvt Ltd,11.0729147,77.3403483,"S.F. No. 256/1, Palladam Road, Tirupur, Tamil Nadu, India",Tirupur,Tamil Nadu,India,Textile,,http://www.cottonblossom.in,-3030330,info@cottonblossom.in,"470097.89999999997, 365631.7",Manufacturer,"""knit""","""Eco-friendly ""Garment"", organic cotton apparel""",,
Point Textile Knits TPR,11.1420033,77.3444569,"P.N. Road, Tirupur, Tamil Nadu, India",Tirupur,Tamil Nadu,India,Textile,,Not Available,Not Available,Not Available,"313398.6, 261165.5",Manufacturer,"""knit""","""Knitted fabrics""",,
Shakthi Knitting,11.0992545,77.4400774,"Muthalipalayam, Tirupur, Tamil Nadu, India",Tirupur,Tamil Nadu,India,Textile,,http://www.shakthiknitting.com,-2260330,info@shakthiknitting.com,"626797.2, 522331.0",Manufacturer,"""knit""","""Innerwear, sportswear (Roopa Brand supplier)""",,
Kongoor Textiles,11.1243543,77.330369,"Avinashi Road, Tirupur, Tamil Nadu, India",Tirupur,Tamil Nadu,India,Textile,,Not Available,Not Available,Not Available,"313398.6, 261165.5",Manufacturer,"""knit""","""Knitted fabrics""",,
Paragon Knits Limited,30.879605,75.9158386,"D-96, Phase V, Focal Point, Ludhiana, Punjab, India",Ludhiana,Punjab,India,Textile,,http://www.paragonknits.com,-2671181,info@paragonknits.com,"288000.0, 182000.0",Manufacturer,"""knit""","""Knitted fabrics""",,
P.C Coloursoft,30.8996687,75.8764518,"Industrial Area, Ludhiana, Punjab, India",Ludhiana,Punjab,India,Textile,,Not Available,Not Available,Not Available,"156000.0, 170000.0",Service Provider,"""knit""","""Dyeing and chemical washing""",,
"Sonia Textiles,Faridabad",28.3425911,77.3048322,"Plot No. 9, Sector 25, Faridabad, Faridabad, Haryana, India",Faridabad,Haryana,India,Textile,,Not Available,-4062260,Not Available,"0.0, 417864.8",Manufacturer,"""knit""","""Fabrics, textile dyeing""",,
Durai Process ,11.4470564,77.6839768,"Bhavani, Erode, Tamil Nadu, India",Erode,Tamil Nadu,India,Textile,,Not Available,Not Available,Not Available,"104466.2, 104466.2",Service Provider,"""knit""","""Fabric processing""",,
"SPL Knits,faridabad",28.3620815,77.3202746,"Plot No. 21, Sector 6, Faridabad, Faridabad, Haryana, India",Faridabad,Haryana,India,Textile,,https://www.splindustries.com,-2240449,admin@splindustries.com,"0.0, 783496.5",Manufacturer,"""knit""","""Knitted fabrics, readymade ""Garment"", sportswear""",,
Jay Jay Mills,11.0878947,77.3340061,"10, K.V.R. Nagar, Karuvampalayam, Tirupur, Tamil Nadu, India",Tirupur,Tamil Nadu,India,Textile,,http://www.jayjaymills.com,-2204774,info@jayjaymills.com,"626797.2, 522331.0",Manufacturer,"""knit""","""Infant wear, knitted ""Garment"" (Major Exporter)""",,
Thangamman Process,11.0924648,77.3123396,"Andipalayam, Tirupur, Tamil Nadu, India",Tirupur,Tamil Nadu,India,Textile,,Not Available,Not Available,Not Available,"470097.89999999997, 365631.7",Service Provider,"""knit""","""Fabric processing""",,
GMS Process,11.1348437,77.3426353,"Perumanallur Road, Tirupur, Tamil Nadu, India",Tirupur,Tamil Nadu,India,Textile,,http://www.gmsprocess.com,-2490329,info@gmsprocess.com,"626797.2, 522331.0",Service Provider,"""knit""","""Fabric dyeing, finishing""",,
Carona Knit Wear,11.1111679,77.3410942,"Harvey Road, Tirupur, Tamil Nadu, India",Tirupur,Tamil Nadu,India,Textile,,Not Available,-2202552,Not Available,"208932.4, 156699.3",Manufacturer,"""knit""","""Hosiery, knitted wear""",,
South Suriya Hi tech Apparals,11.0988674,77.3924355,"Kangayam Road, Tirupur, Tamil Nadu, India",Tirupur,Tamil Nadu,India,Textile,,Not Available,Not Available,Not Available,"208932.4, 156699.3",Manufacturer,"""knit""","""High-tech apparel manufacturing""",,
Magaarani,11.0768662,77.3414274,"Palladam Road, Tirupur, Tamil Nadu, India",Tirupur,Tamil Nadu,India,Textile,,Not Available,Not Available,Not Available,"626797.2, 522331.0",Manufacturer,"""knit""","""Apparel manufacturing""",,
LOVELY UDYOG,30.887551,75.8606577,"Industrial Area B, Ludhiana, Punjab, India",Ludhiana,Punjab,India,Textile,,Not Available,Not Available,Not Available,"150000.0, 170000.0",Manufacturer,"""knit""","""Textile machinery parts / Fasteners""",,
Kothari Processors Pvt. Ltd,22.5802167,88.3905869,"Kankurgachi, Kolkata, West Bengal, India",Kolkata,West Bengal,India,Textile,,http://www.kothariprocessors.com,-23201053,info@kothariprocessors.com,"282000.0, 176000.0",Service Provider,"""knit""","""Fabric bleaching, dyeing, printing""",,
Kudu Knit,30.9430991,75.8857621,"Village Bajra, Rahon Road, Ludhiana, Punjab, India",Ludhiana,Punjab,India,Textile,,http://www.kuduknit.com,-2634514,info@kuduknit.com,"282000.0, 176000.0",Manufacturer,"""knit""","""Knitted fabrics, polar fleece, plush fabrics""",,
Kpr Mills Ltd,11.1140322,77.3357825,"Indira Nagar, Avinashi Road, Coimbatore / Tirupur, Tamil Nadu, India",Coimbatore / Tirupur,Tamil Nadu,India,Textile,,https://www.kprmilllimited.com,-2208108,corporate@kprmill.com,"1305827.5, 1305827.5",Manufacturer,"""knit""","""Yarn, knitted fabric, ""Garment"" (Faso brand)""",,
Manglam Ventures,28.3615335,77.3194143,"Sector 6, Faridabad, Haryana, India",Faridabad,Haryana,India,Textile,,Not Available,Not Available,Not Available,"150000.0, 164000.0",Manufacturer,"""knit""","""Knitwear exports""",,
S.C.M. Textile Processing Mills ,11.1243543,77.330369,"Avinashi Road, Tirupur / Erode, Tamil Nadu, India",Tirupur / Erode,Tamil Nadu,India,Textile,,http://www.thechennaisilks.com,-2243218,"info@scm""Garment"".com","1566993.0, 1566993.0",Service Provider,"""knit""","""Fabric processing (SCM Group/Chennai Silks)""",,
"Shahi Dyeing,Ballabhgarh",28.3529347,77.3211902,"Sector 24, Industrial Area, Ballabgarh, Haryana, India",Ballabgarh,Haryana,India,Textile,,https://www.shahi.co.in,-4284038,info@shahi.co.in,"294000.0, 186000.0",Service Provider,"""knit""","""Fabric dyeing, ""Garment"" dyeing (Unit of Shahi Exports)""",,
"Ginni Filament,Kosi",27.828958,77.4523155,"110 KM Stone, Delhi-Mathura Road, Kosi Kalan, Kosi Kalan, Uttar Pradesh, India",Kosi Kalan,Uttar Pradesh,India,Textile,,https://ginnifilaments.com,-237997,secretarial@ginnifilaments.com,"294000.0, 182000.0",Manufacturer,"""knit""","""Cotton yarn, non-woven fabrics, wet wipes""",,
"Gupta Exim,Delhi NCR",28.436485,77.308249,"Plot No. 1, Sector 27A, Faridabad, Faridabad, Haryana, India",Faridabad,Haryana,India,Textile,,https://guptaexim.com,-4196638,info@guptaexim.com,"294000.0, 186000.0",Manufacturer / Exporter,"""knit""","""Ladies wear, kids wear, high fashion ""Garment""""",,
P I COTEX -Ludhiana,30.879605,75.9158386,"C-172, Phase V, Focal Point, Ludhiana, Punjab, India",Ludhiana,Punjab,India,Textile,,http://www.picotex.com,-2672548,info@picotex.com,"10446620.0, 0.0",Manufacturer,"""knit""","""Knitted ""Garment"", t-shirts, lowers""",,
Adinath Textiles-Ludhiana,30.8820454,75.9495021,"Village Bholapur, P.O. Sahabana, Chandigarh Road, Ludhiana, Punjab, India",Ludhiana,Punjab,India,Textile,,http://www.adinathtextiles.com,-2685340,atl@shreyansgroup.com,"13058275.0, 0.0",Manufacturer,"""knit""","""Acrylic yarn, blended yarn, fancy yarn""",,
Ekta Dyeing-Ludhiana,30.8522449,75.891416,"Plot No. 896/3, Street No. 3, Geeta Colony, Rahon Road, Ludhiana, Punjab, India",Ludhiana,Punjab,India,Textile,,Not Available,-2634403,Not Available,"13058275.0, 0.0",Service Provider,"""knit""","""Fabric dyeing, finishing""",,
A. K. Textiles,30.946705,75.8499256,"Bahadur Ke Road, Ludhiana, Punjab, India",Ludhiana,Punjab,India,Textile,,Not Available,-2704514,Not Available,"150000.0, 168000.0",Manufacturer,"""knit""","""Knitted fabrics, shawls""",,
Mahaveer Dyeing-Ludhiana,30.946705,75.8499256,"Bahadur Ke Road, Near Jalandhar Bye Pass, Ludhiana, Punjab, India",Ludhiana,Punjab,India,Textile,,Not Available,-9814095475,Not Available,"10446620.0, 0.0",Service Provider,"""knit""","""Textile dyeing services, bleaching""",,
Sukartik-Ludhiana,30.928099,75.866144,"B-24/2985, Sunder Nagar, Ludhiana, Punjab, India",Ludhiana,Punjab,India,Textile,,http://www.sukartik.com,-2606114,info@sukartik.com,"9401958.0, 0.0",Manufacturer / Exporter,"""knit""","""Knitted ""Garment"", thermals, sportswear""",,
Yogi Dyeing-Ludhiana,30.8967977,75.8772958,"Plot No. 445, Industrial Area-A, Ludhiana, Punjab, India",Ludhiana,Punjab,India,Textile,,Not Available,-5085515,Not Available,"10446620.0, 0.0",Service Provider,"""knit""","""Fabric dyeing, textile finishing""",,
K Jain Dyeing-Ludhiana,30.9498166,75.8843271,"Rahon Road, Village Bajra, Ludhiana, Punjab, India",Ludhiana,Punjab,India,Textile,,Not Available,Not Available,Not Available,"7834965.0, 0.0",Service Provider,"""knit""","""Yarn dyeing, fabric dyeing""",,
Gunno Knits,30.9235264,75.868908,"Sunder Nagar, Ludhiana, Punjab, India",Ludhiana,Punjab,India,Textile,,http://www.gunnoknits.com,-2601888,gunno@gunnoknits.com,"282000.0, 176000.0",Manufacturer,"""knit""","""Woolen knitwear, pullovers, cardigans""",,
G Sons-Ludhiana,30.8726216,75.9117784,"G.T. Road, Near Dhandari Kalan Railway Station, Ludhiana, Punjab, India",Ludhiana,Punjab,India,Textile,,https://www.gsons.in,-2670424,info@gsons.in,"10968951.0, 0.0",Manufacturer,"""knit""","""Readymade ""Garment"", knitwear""",,
Velan Dyeing,11.1478941,77.3458126,"Boyampalayam, Tirupur, Tamil Nadu, India",Tirupur,Tamil Nadu,India,Textile,,Not Available,-2241441,Not Available,"208932.4, 156699.3",Service Provider,"""knit""","""Textile dyeing""",,
Thai international,11.1086503,77.3314855,"College Road, Tirupur, Tamil Nadu, India",Tirupur,Tamil Nadu,India,Textile,,Not Available,-2242552,Not Available,"261165.5, 208932.4",Exporter,"""knit""","""Knitted ""Garment""""",,
Sri Ambal Dyeing,11.05276,77.3585676,"Veerapandi, Tirupur, Tamil Nadu, India",Tirupur,Tamil Nadu,India,Textile,,Not Available,Not Available,Not Available,"652913.75, 522331.0",Service Provider,"""knit""","""Textile dyeing""",,
Victus Dyeing,11.1348437,77.3426353,"Perumanallur Road, Tirupur, Tamil Nadu, India",Tirupur,Tamil Nadu,India,Textile,,http://www.victusdyeing.com,-4340330,admin@victusdyeing.com,"1305827.5, 1044662.0",Service Provider,"""knit""","""Fabric dyeing, finishing""",,
Danavarshini Exports,11.1086503,77.3314855,"College Road, Tirupur, Tamil Nadu, India",Tirupur,Tamil Nadu,India,Textile,,https://www.danavarshiniexports.com,-2244774,info@danavarshiniexports.com,"313398.6, 261165.5",Exporter,"""knit""","""Knitted ""Garment"", kids wear""",,
Lucky Colours,11.1085242,77.3410656,"Mannari, Tirupur, Tamil Nadu, India",Tirupur,Tamil Nadu,India,Textile,,Not Available,Not Available,Not Available,"313398.6, 261165.5",Service Provider,"""knit""","""Textile dyeing""",,
Nector Crafts,11.0988674,77.3924355,"Kangayam Road, Tirupur, Tamil Nadu, India",Tirupur,Tamil Nadu,India,Textile,,Not Available,Not Available,Not Available,"313398.6, 261165.5",Manufacturer,"""knit""","""Apparel manufacturing""",,
Aviram Process,11.1155014,77.3850169,"Kasipalayam, Tirupur, Tamil Nadu, India",Tirupur,Tamil Nadu,India,Textile,,Not Available,-2211441,Not Available,"156699.3, 104466.2",Service Provider,"""knit""","""Fabric processing""",,
Emperor Textiles,11.1418005,77.3310067,"Angeripalayam, Tirupur, Tamil Nadu, India",Tirupur,Tamil Nadu,India,Textile,,https://www.emperortextiles.com,-2479218,info@emperortextiles.com,"261165.5, 208932.4",Manufacturer,"""knit""","""Knitted fabrics, ""Garment""""",,
Point Knit Exports,11.1243543,77.330369,"Avinashi Road, Tirupur, Tamil Nadu, India",Tirupur,Tamil Nadu,India,Textile,,Not Available,-2203663,Not Available,"261165.5, 208932.4",Exporter,"""knit""","""Hosiery ""Garment""""",,
Indian Stitches,11.1602844,77.3740732,"Neruperichal, Tirupur, Tamil Nadu, India",Tirupur,Tamil Nadu,India,Textile,,https://www.indianstitches.com,-4242754,info@indianstitches.com,"626797.2, 522331.0",Manufacturer,"""knit""","""Knitwear, apparel""",,
Evergreen,11.1424982,77.3311444,"Angeripalayam Road, Tirupur, Tamil Nadu, India",Tirupur,Tamil Nadu,India,Textile,,Not Available,-2475885,Not Available,"313398.6, 261165.5",Exporter,"""knit""","""Knitted ""Garment""""",,
Shyam Indofab,20.928162,79.003115,"Butibori MIDC, Nagpur, Maharashtra, India",Nagpur,Maharashtra,India,Textile,,http://www.shyamindofab.com,-272568,info@shyamindofab.com,"282000.0, 176000.0",Manufacturer,"""knit""","""Cotton yarn, fabrics""",,
MP Shan Tex,11.1085242,77.3410656,"Tirupur, Tirupur, Tamil Nadu, India",Tirupur,Tamil Nadu,India,Textile,,Not Available,Not Available,Not Available,"150000.0, 174000.0",Manufacturer,"""knit""","""Knitwear""",,
Krishna hosiery,19.017768,72.8290675,"396, Veer Savarkar Marg, Prabhadevi, Mumbai, Maharashtra, India",Mumbai,Maharashtra,India,Textile,,Not Available,Not Available,Not Available,"4700979.0, 0.0",Manufacturer,"""knit""","""Knitted fabrics, hosiery ""Garment""""",,
Suditi Industries,19.0830549,73.0240648,"C-253/254, MIDC, TTC Indl. Area, Pawne Village, Turbhe, Navi Mumbai, Maharashtra, India",Navi Mumbai,Maharashtra,India,Textile,,https://suditi.in,-67368531,cs@suditi.in,"13058275.0, 0.0",Manufacturer,"""knit""","""Knitted fabrics, ready-made ""Garment"", retail apparel""",,
Blue Blends,19.110608,72.832553,"Juhu Scheme, Mumbai, Maharashtra, India",Mumbai,Maharashtra,India,Textile,,http://www.blueblends.com,-26231042,info@blueblends.com,"288000.0, 186000.0",Manufacturer,"""knit""","""Denim fabrics""",,
Global Textile ,11.0768662,77.3414274,"Palladam Road, Tirupur, Tamil Nadu, India",Tirupur,Tamil Nadu,India,Textile,,Not Available,-2216996,Not Available,"208932.4, 156699.3",Manufacturer,"""knit""","""Knitted fabrics""",,
In Time Textile Process,11.1085242,77.3410656,"SIDCO Industrial Estate, Tirupur, Tamil Nadu, India",Tirupur,Tamil Nadu,India,Textile,,Not Available,-2219218,Not Available,"417864.8, 313398.6",Service Provider,"""knit""","""Fabric processing""",,
Siruba Colours,11.0425644,77.3123396,"Arulpuram, Tirupur, Tamil Nadu, India",Tirupur,Tamil Nadu,India,Textile,,Not Available,Not Available,Not Available,"208932.4, 156699.3",Service Provider,"""knit""","""Textile dyeing""",,
Parvathy Dyeing,11.05276,77.3585676,"Veerapandi, Tirupur, Tamil Nadu, India",Tirupur,Tamil Nadu,India,Textile,,Not Available,Not Available,Not Available,"470097.89999999997, 365631.7",Service Provider,"""knit""","""Fabric dyeing""",,
Bhoomi,22.9921815,72.5705126,"Piplaj Road, Narol, Ahmedabad, Gujarat, India",Ahmedabad,Gujarat,India,Textile,,Not Available,-25718876,Not Available,"15669930.0, 12535944.0",Service Provider,"""knit""","""Textile processing, dyeing (Bhoomi Textile)""",,
Perfect Kniters,11.1085242,77.3410656,"Tirupur / Mumbai, Tirupur, Tamil Nadu, India",Tirupur,Tamil Nadu,India,Textile,,http://www.perfectknitters.com,-2212552,info@perfectknitters.com,"294000.0, 182000.0",Manufacturer,"""knit""","""Knitted ""Garment""""",,
Poppys Art,11.1085242,77.3410656,"33, M.P. Nagar, Tirupur, Tamil Nadu, India",Tirupur,Tamil Nadu,India,Textile,,http://www.poppysknitwear.com,-4322552,info@poppysknitwear.com,"313398.6, 261165.5",Manufacturer,"""knit""","""Knitted apparel (Poppys Group)""",,
YOUNGMAN DYEING,30.9315106,75.8710619,"Rahon Road, Ludhiana, Punjab, India",Ludhiana,Punjab,India,Textile,,Not Available,Not Available,Not Available,"150000.0, 168000.0",Service Provider,"""knit""","""Textile dyeing""",,
Scientific Knits,30.8859334,75.9301748,"Phase VIII, Focal Point, Ludhiana, Punjab, India",Ludhiana,Punjab,India,Textile,,Not Available,-4645625,info@rainbowscientific.com,"156000.0, 170000.0",Service Provider,"""knit""","""Textile dyeing, knitted fabric processing (Rainbow Scientific)""",,
Pasupati Textile,28.6505331,77.230337,"Chandni Chowk, New Delhi, Delhi, India",New Delhi,Delhi,India,Textile,,Not Available,Not Available,Not Available,"144000.0, 182000.0",Trader,"""knit""","""Fabrics""",,
Precise Seamless Apparels Pvt. Ltd,28.7173673,77.0960373,"Rithala, New Delhi, Delhi, India",New Delhi,Delhi,India,Textile,,http://www.preciseseamless.com,-27045475,info@preciseseamless.com,"282000.0, 186000.0",Manufacturer,"""knit""","""Seamless knitwear, activewear""",,
Sathya Process,11.0985987,77.3207291,"Mangalam Road, Tirupur, Tamil Nadu, India",Tirupur,Tamil Nadu,India,Textile,,Not Available,Not Available,Not Available,"470097.89999999997, 156699.3",Service Provider,"""knit""","""Fabric processing""",,
Oskar Process,11.1478941,77.3458126,"Boyampalayam, Tirupur, Tamil Nadu, India",Tirupur,Tamil Nadu,India,Textile,,Not Available,Not Available,Not Available,"156699.3, 104466.2",Service Provider,"""knit""","""Fabric dyeing""",,
Deepthy Dyeing,11.0992545,77.4400774,"Muthalipalayam, Tirupur, Tamil Nadu, India",Tirupur,Tamil Nadu,India,Textile,,Not Available,-2268107,Not Available,"208932.4, 156699.3",Service Provider,"""knit""","""Fabric dyeing""",,
Tube Knit Fashion,11.0878688,77.3339171,"K.V.R. Nagar, Karuvampalayam, Tirupur, Tamil Nadu, India",Tirupur,Tamil Nadu,India,Textile,,http://www.tubeknit.com,-2220330,info@tubeknit.com,"208932.4, 156699.3",Manufacturer,"""knit""","""Knitted ""Garment"", fashion apparel""",,
Ess Pee Knit Process,11.0652583,77.3326074,"Murugampalayam, Tirupur, Tamil Nadu, India",Tirupur,Tamil Nadu,India,Textile,,Not Available,-2234774,Not Available,"208932.4, 156699.3",Service Provider,"""knit""","""Fabric dyeing, bleaching""",,
GTN Industries,21.1458004,79.0881546,"Nagpur Unit, Nagpur, Maharashtra, India",Nagpur,Maharashtra,India,Textile,,http://www.gtnindustries.com,-2545065,marketing@gtnindustries.com,"288000.0, 176000.0",Manufacturer,"""knit""","""Fine cotton yarn processing""",,
Exim Knits,11.1086503,77.3314855,"College Road, Tirupur, Tamil Nadu, India",Tirupur,Tamil Nadu,India,Textile,,http://www.eximknits.com,-2248107,info@eximknits.com,"470097.89999999997, 365631.7",Exporter,"""knit""","""Knitted apparel""",,
Balu Exports,11.0213033,76.9525852,"S.F. No. 367, Mettupalayam Road, Tirupur, Tamil Nadu, India",Tirupur,Tamil Nadu,India,Textile,,http://www.baluexports.net,-2222552,info@baluexports.net,"365631.7, 261165.5",Exporter,"""knit""","""Knitted ""Garment"" (Royal Classic Group)""",,
GKM Colours,11.0425644,77.3123396,"Arulpuram, Tirupur, Tamil Nadu, India",Tirupur,Tamil Nadu,India,Textile,,Not Available,Not Available,Not Available,"208932.4, 156699.3",Service Provider,"""knit""","""Textile dyeing""",,
Junior Processing Mills,11.0652583,77.3326074,"Murugampalayam, Tirupur, Tamil Nadu, India",Tirupur,Tamil Nadu,India,Textile,,Not Available,-2236996,Not Available,"365631.7, 261165.5",Service Provider,"""knit""","""Fabric dyeing""",,
Premier Knit Process,11.1130359,77.3431408,"Tirupur Industrial Estate, Tirupur, Tamil Nadu, India",Tirupur,Tamil Nadu,India,Textile,,Not Available,Not Available,Not Available,"156699.3, 104466.2",Service Provider,"""knit""","""Knit fabric processing""",,
GT Process,11.0985987,77.3207291,"Mangalam Road, Tirupur, Tamil Nadu, India",Tirupur,Tamil Nadu,India,Textile,,Not Available,Not Available,Not Available,"313398.6, 261165.5",Service Provider,"""knit""","""Fabric processing""",,
Krishna Textile Process,11.1243543,77.330369,"Avinashi Road, Tirupur, Tamil Nadu, India",Tirupur,Tamil Nadu,India,Textile,,Not Available,-2204774,Not Available,"470097.89999999997, 365631.7",Service Provider,"""knit""","""Fabric processing""",,
Allwin Colours,11.05276,77.3585676,"Veerapandi, Tirupur, Tamil Nadu, India",Tirupur,Tamil Nadu,India,Textile,,Not Available,Not Available,Not Available,"365631.7, 261165.5",Service Provider,"""knit""","""Textile dyeing""",,
Selvam Process,11.1155014,77.3850169,"Kasipalayam, Tirupur, Tamil Nadu, India",Tirupur,Tamil Nadu,India,Textile,,Not Available,-2213663,Not Available,"313398.6, 261165.5",Service Provider,"""knit""","""Fabric dyeing""",,
Ramakrishna Dyeing Ind,11.0924648,77.3123396,"Andipalayam, Tirupur, Tamil Nadu, India",Tirupur,Tamil Nadu,India,Textile,,Not Available,-2245885,Not Available,"470097.89999999997, 365631.7",Service Provider,"""knit""","""Textile dyeing""",,
Santhosh Textiles,11.0768662,77.3414274,"Palladam Road, Tirupur, Tamil Nadu, India",Tirupur,Tamil Nadu,India,Textile,,Not Available,-2214774,Not Available,"626797.2, 522331.0",Trader,"""knit""","""Fabric trading""",,
Allwin Textile Process,11.05276,77.3585676,"Veerapandi, Tirupur, Tamil Nadu, India",Tirupur,Tamil Nadu,India,Textile,,Not Available,Not Available,Not Available,"470097.89999999997, 365631.7",Service Provider,"""knit""","""Fabric processing""",,
Shri Lakshmi Textiles,11.1243543,77.330369,"Avinashi Road, Tirupur, Tamil Nadu, India",Tirupur,Tamil Nadu,India,Textile,,Not Available,Not Available,Not Available,"783496.5, 626797.2",Manufacturer,"""knit""","""Yarn, fabrics""",,
"Scotts ""Garment""",11.2321852,77.4636964,"Scott Nagar, Kunnathur Road, Tirupur, Tamil Nadu, India",Tirupur,Tamil Nadu,India,Textile,,"http://www.scotts""Garment"".com",-2221441,"info@scotts""Garment"".com","626797.2, 522331.0",Manufacturer,"""knit""","""Ready-made ""Garment""""",,
Jeyavishnu Tex Process,11.1743568,77.2772613,"S.F. No. 222, Merkupathy Village, Tirupur, Tamil Nadu, India",Tirupur,Tamil Nadu,India,Textile,,http://www.jeyavishnu.com,-260830,info@jeyavishnu.com,"156699.3, 1044662.0",Service Provider,"""knit""","""Fabric dyeing, rotary printing (KM Knitwear Group)""",,
KTM,11.0751163,77.3408084,"K.T.M. House, Palladam Road, Tirupur, Tamil Nadu, India",Tirupur,Tamil Nadu,India,Textile,,http://www.ktmindia.com,-2215885,info@ktmindia.com,"470097.89999999997, 365631.7",Manufacturer,"""knit""","""Knitted ""Garment"" (Kumar Textile Mills)""",,
Jai Knit Process,11.0924648,77.3123396,"Andipalayam, Tirupur, Tamil Nadu, India",Tirupur,Tamil Nadu,India,Textile,,Not Available,Not Available,Not Available,"208932.4, 156699.3",Service Provider,"""knit""","""Knit fabric processing""",,
Chandru Process,11.05276,77.3585676,"Veerapandi, Tirupur, Tamil Nadu, India",Tirupur,Tamil Nadu,India,Textile,,Not Available,Not Available,Not Available,"261165.5, 208932.4",Service Provider,"""knit""","""Fabric dyeing and bleaching""",,
Arvind Textile Process,11.05276,77.3585676,"Veerapandi, Tirupur, Tamil Nadu, India",Tirupur,Tamil Nadu,India,Textile,,Not Available,Not Available,Not Available,"313398.6, 261165.5",Service Provider,"""knit""","""Fabric processing""",,
Bharat Texutile Processings ,11.3673592,77.7076747,"Bhavani Main Road, Erode, Tamil Nadu, India",Erode,Tamil Nadu,India,Textile,,Not Available,Not Available,Not Available,"365631.7, 365631.7",Service Provider,"""knit""","""Textile processing""",,
"D'Décor Home Fabrics  (Yarn), (D'Décor Group)",19.1117627,72.8607176,"Solitaire Corporate Park, Bldg No 14, 6th/7th Floor, Guru Hargovindji Marg, Chakala, Andheri (E), Mumbai, Maharashtra, India",Mumbai,Maharashtra,India,Textile,,https://www.ddecor.com,-66781931,customercare@ddecor.com,"12051585.0, 0.0",Manufacturer / Exporter,"""yarn""","""Upholstery, curtains, fine yarn, blended yarn""",,
Ashima,23.0019268,72.6189273,"Texcellence Complex, Khokhra Mehmedabad, Ahmedabad, Gujarat, India",Ahmedabad,Gujarat,India,Textile,,https://www.ashima.in,-67776988,texcellence@ashima.in,"6197958.0, 5681461.5",Manufacturer,"""yarn""","""Denim, shirting, trousering fabrics""",,
RDL,22.9877211,72.4931378,"Raghuvir Denims, Narol-Sarkhej Highway, Ahmedabad, Gujarat, India",Ahmedabad,Gujarat,India,Textile,,http://www.raghuvir.com,-25714338,raghuvir@raghuvir.com,"3443310.0, 3098979.0",Manufacturer,"""yarn""","""Denim fabrics, textile processing""",,
Sarla,18.924511,72.8207006,"304, Arcadia, 195, Nariman Point, Mumbai, Maharashtra, India",Mumbai,Maharashtra,India,Textile,,https://www.sarlafibers.com,-22834047,info@sarlafibers.com,"13773240.0, 0.0",Manufacturer,"""yarn""","""Textured nylon yarn, covered yarn, high tenacity yarn""",,
Vignesh Yarn Colors,11.1676029,77.6042342,"Chennimalai, Erode, Tamil Nadu, India",Erode,Tamil Nadu,India,Textile,,Not Available,Not Available,Not Available,"68866200.0, 1721655000.0",Service Provider,"""yarn""","""Yarn dyeing""",,
Mahaveer Hoshirapur,31.5111628,75.8991271,"Vardhman Spinning & General Mills, Phagwara Road, Hoshiarpur, Punjab, India",Hoshiarpur,Punjab,India,Textile,,https://www.vardhman.com,-247953,mktg@vardhman.com,"294000.0, 182000.0",Manufacturer,"""yarn""","""Cotton yarn, sewing thread (Unit of Vardhman)""",,
Kallam textiles,16.254323,80.3354581,"NH-5, Chowdavaram, Guntur, Andhra Pradesh, India",Guntur,Andhra Pradesh,India,Textile,,https://www.kallamtextiles.com,-2234216,corp@kallamtextiles.com,"4131972.0, 0.0",Manufacturer,"""yarn""","""Cotton yarn, grey fabric, dyed fabric, power generation""",,
Mandhana dyeing,18.99591,72.8385086,"Unit 205-214, Peninsula Center, Dr. S.S. Rao Road, Parel, Mumbai, Maharashtra, India",Mumbai,Maharashtra,India,Textile,,https://www.mandhana.com,-43539122,info@mandhana.com,"10329930.0, 1032993.0",Manufacturer,"""yarn""","""Fabric dyeing, ""Garment"" manufacturing, weaving""",,
Shetrunjay dyeing,19.3114545,73.0646783,"951, Bhiwandi Wada Road, Near Vinayak Dyeing, Opp. H.P. Petrol Pump, Shelar, Bhiwandi, Maharashtra, India",Bhiwandi,Maharashtra,India,Textile,,https://www.shetrunjay.co.in,-8459609972,info@shetrunjay.co.in,"10329930.0, 0.0",Manufacturer / Processor,"""yarn""","""Dyeing, printing, finishing of cotton & synthetic fabrics""",,
Nandan Yarn,23.019795,72.5294328,"Chiripal House, Shivranjani Cross Roads, Ahmedabad, Gujarat, India",Ahmedabad,Gujarat,India,Textile,,https://www.nandandenim.com,-26734648,info@nandandenim.com,"516496.5, 413197.19999999995",Manufacturer,"""yarn""","""Cotton Yarn, Denim Yarn""",,
BVM,23.2393129,72.5082274,"Bharat Vijay Mills, Kalol, Gandhinagar, Gujarat, India",Gandhinagar,Gujarat,India,Textile,,http://www.sintex.in,-255673,bvm@sintex.co.in,"10329930.0, 8263944.0",Manufacturer,"""yarn""","""Fabrics, yarn, textiles (Sintex Division)""",,
Marriott Cotspin,19.103993,72.872367,"303/304, 3rd Floor, Hiranandani Fulcrum, Sahar Road, Andheri (East), Mumbai, Maharashtra, India",Mumbai,Maharashtra,India,Textile,,Not Available,Not Available,kiran.dosani@marriott.com,"150000.0, 186000.0",Manufacturer,"""yarn""","""Cotton yarn, spinning products""",,
Morarjee Textiles,18.9991803,72.828686,"2, Peninsula Spenta, Mathuradas Mills Compound, Senapati Bapat Marg, Lower Parel, Mumbai, Maharashtra, India",Mumbai,Maharashtra,India,Textile,,https://morarjee.com,-66154582,secretarial@morarjee.com,"3098979.0, 0.0",Manufacturer / Exporter,"""yarn""","""Cotton shirting fabric, printed fashion fabric, voile""",,
Raymonds,18.9343408,72.8414396,"New Hind House, Narottam Morarji Marg, Ballard Estate, Mumbai, Maharashtra, India",Mumbai,Maharashtra,India,Textile,,https://www.raymond.in,-22685931,corp.comm@raymond.in,"3098979.0, 0.0",Manufacturer,"""yarn""","""Worsted suiting, denim, shirting, woolen fabrics""",,
F M Hammerle,30.8938703,75.8646997,"Office No. 4, 2nd Floor, Guru Har Rai Complex, Industrial Estate Road, Ludhiana, Punjab, India",Ludhiana,Punjab,India,Textile,,Not Available,Not Available,Not Available,"3098979.0, 0.0",Manufacturer,"""yarn""","""Shirting fabrics, yarn dyed fabrics""",,
Soktas,16.5886465,74.3085454,"Plot No. T-8, Kagal Hatkanangle, Five Star MIDC, Kasba Sangaon, Kolhapur, Maharashtra, India",Kolhapur,Maharashtra,India,Textile,,https://www.soktas.com.tr,-2305140,fadil.erten@soktas.com.tr,"3098979.0, 0.0",Manufacturer,"""yarn""","""Premium cotton shirting fabrics, yarn dyed fabrics""",,
Dicitex Furnishing (Dicitex Group),19.1854939,72.835477,"301B, Palm Court Complex, M Building, B Wing, 3rd Floor, Malad Link Road, Malad (West), Mumbai, Maharashtra, India",Mumbai,Maharashtra,India,Textile,,https://dctex.com,-42487931,sales@dctex.com,"6886620.0, 0.0",Manufacturer / Exporter,"""yarn""","""Velvet, chenille, jacquard curtains, upholstery, bed linen""",,
Tessitura,16.6930195,74.2681479,"Gat No. 147, Village Tamgaon, Kolhapur-Hupari Road, Kolhapur, Maharashtra, India",Kolhapur,Maharashtra,India,Textile,,https://www.monti.co.in,-2683040,info@monti.co.in,"3098979.0, 0.0",Manufacturer,"""yarn""","""Processed cotton yarn, high-value shirting fabrics""",,
Ascent Yarn,22.9237892,72.421803,"Moraiya Industrial Estate, Sanand, Ahmedabad, Gujarat, India",Ahmedabad,Gujarat,India,Textile,,https://www.ascentyarns.com,-9376186255,info@ascentyarns.com,"8608275.0, 5164965.0",Manufacturer,"""yarn""","""Cotton yarn, synthetic yarn""",,
Patel Tin,23.0817524,72.659415,"Naroda Industrial Estate, Ahmedabad, Gujarat, India",Ahmedabad,Gujarat,India,Textile,,Not Available,-22814432,Not Available,"1032993.0, 826394.3999999999",Manufacturer,"""yarn""","""Tin containers (Often allied with textile chemical packaging)""",,
Ajantha dyeing,11.1085242,77.3410656,"Mannari, Tirupur, Tamil Nadu, India",Tirupur,Tamil Nadu,India,Textile,,Not Available,Not Available,Not Available,"68866.2, 68866.2",Service Provider,"""yarn""","""Yarn and fabric dyeing""",,
Amutha Colours,11.05276,77.3585676,"Veerapandi, Tirupur, Tamil Nadu, India",Tirupur,Tamil Nadu,India,Textile,,Not Available,Not Available,Not Available,"68866.2, 68866.2",Service Provider,"""yarn""","""Textile dyeing""",,
Senbagam Process,11.0924648,77.3123396,"Andipalayam, Tirupur, Tamil Nadu, India",Tirupur,Tamil Nadu,India,Textile,,Not Available,-2239218,Not Available,"137732.4, 137732.4",Service Provider,"""yarn""","""Fabric processing""",,
KVP dyeing,11.2988066,77.6479612,"Perundurai Road, Erode, Tamil Nadu, India",Erode,Tamil Nadu,India,Textile,,Not Available,Not Available,Not Available,"68866.2, 68866.2",Service Provider,"""yarn""","""Textile dyeing""",,
Atlantic Fabrics,11.0768662,77.3414274,"Palladam Road, Tirupur, Tamil Nadu, India",Tirupur,Tamil Nadu,India,Textile,,Not Available,Not Available,Not Available,"150000.0, 174000.0",Manufacturer,"""yarn""","""Knitted fabrics""",,
Ero Dyeing ,11.3609068,77.7126018,"B.P. Agraharam, Erode, Tamil Nadu, India",Erode,Tamil Nadu,India,Textile,,Not Available,-2291444,Not Available,"172165.5, 172165.5",Service Provider,"""yarn""","""Textile dyeing""",,
Colorant Textile Process ,11.2584583,77.5532979,"Perundurai SIPCOT, Erode, Tamil Nadu, India",Erode,Tamil Nadu,India,Textile,,Not Available,Not Available,Not Available,"68866.2, 17216.55",Service Provider,"""yarn""","""Textile processing""",,
Jai Dyeing Works ,11.4362628,77.7232172,"Komarapalayam, Erode / Namakkal, Tamil Nadu, India",Erode / Namakkal,Tamil Nadu,India,Textile,,Not Available,Not Available,Not Available,"137732.4, 137732.4",Service Provider,"""yarn""","""Textile dyeing""",,
Satyam Textile Process ,11.3673592,77.7076747,"Bhavani Road, Erode, Tamil Nadu, India",Erode,Tamil Nadu,India,Textile,,Not Available,Not Available,Not Available,"137732.4, 137732.4",Service Provider,"""yarn""","""Textile processing""",,
Superfine Bleaching Compnay Limited ,11.1152437,77.7376203,"P.B. No. 403, Vairapalyam, Erode, Tamil Nadu, India",Erode,Tamil Nadu,India,Textile,,Not Available,-2275888,superfine@vsnl.com,"275464.8, 275464.8",Service Provider,"""yarn""","""Bleaching, finishing""",,
SGS Yarns,30.958419,75.9010721,"Village Seera, Rahon Road, Ludhiana, Punjab, India",Ludhiana,Punjab,India,Textile,,http://sgsyarns.com,-2691770,info@sgsyarns.com,"5164965.0, 0.0",Manufacturer,"""yarn""","""Acrylic yarn, polyester yarn, blended yarn""",,
Royal Processors,21.1433315,72.8344048,"Plot No. 120, GIDC, Pandesara, Surat, Gujarat, India",Surat,Gujarat,India,Textile,,Not Available,-2891725,Not Available,"20659860.0, 0.0",Service Provider,"""yarn""","""Fabric dyeing, textile finishing""",,
Damodar Yarns,18.977533,72.8311161,"A-1/202, Centre Point, 243-A, N.M. Joshi Marg, Lower Parel (E), Mumbai, Maharashtra, India",Mumbai,Maharashtra,India,Textile,,https://www.damodargroup.com,-66610232,sales@damodargroup.com,"20659860.0, 0.0",Manufacturer,"""yarn""","""Cotton yarn, linen blends, fancy yarns, melange yarn""",,
Kailash Ribbon,28.5565088,77.172029,"B-44, Mayapuri Industrial Area, New Delhi, Delhi, India",New Delhi,Delhi,India,Textile,,http://www.kailashribbon.com,-45543253,info@kailashribbon.com,"288000.0, 186000.0",Manufacturer,"""yarn""","""Ribbons, laces, braids, elastics""",,
Vinayak Textiles Ltd-Ludhiana,30.8770008,75.9051497,"Dhandari Kalan, G.T. Road, Ludhiana, Punjab, India",Ludhiana,Punjab,India,Textile,,Not Available,-2670303,vinayaktextile@hotmail.com,"150000.0, 168000.0",Manufacturer,"""yarn""","""Yarn, fabrics, textile goods""",,
Gutermann India Pvt. Ltd.,28.4908258,77.0690091,"Plot No. 59-60, Sector 18, Gurgaon, Haryana, India",Gurgaon,Haryana,India,Textile,,https://www.guetermann.com,-4001921,industrial.india@guetermann.com,"294000.0, 186000.0",Manufacturer,"""yarn""","""Industrial sewing threads, automotive threads""",,
Chakraa Dyeing Factory ,11.3662185,77.7478264,"Pallipalayam, Erode / Namakkal, Tamil Nadu, India",Erode / Namakkal,Tamil Nadu,India,Textile,,Not Available,Not Available,Not Available,"68866.2, 0.0",Service Provider,"""yarn""","""Fabric dyeing""",,
Padma Textiles ,11.62196,77.7429723,"Ammapet, Erode / Salem, Tamil Nadu, India",Erode / Salem,Tamil Nadu,India,Textile,,Not Available,Not Available,Not Available,"34433.1, 0.0",Manufacturer,"""yarn""","""Cotton fabrics""",,
Aruna Yarn Colors ,11.31942,77.713622,"Chennimalai Road, Erode, Tamil Nadu, India",Erode,Tamil Nadu,India,Textile,,Not Available,Not Available,Not Available,"103299.29999999999, 103299.29999999999",Service Provider,"""yarn""","""Yarn dyeing""",,
Amaravathy Textiles,10.5886634,77.238001,"Udumalpet Road, Udumalpet / Tirupur, Tamil Nadu, India",Udumalpet / Tirupur,Tamil Nadu,India,Textile,,Not Available,-227494,Not Available,"68866.2, 68866.2",Manufacturer,"""yarn""","""Cotton yarn, fabrics""",,
Amutha Bleaching,11.3673592,77.7076747,"Bhavani Road, Erode, Tamil Nadu, India",Erode,Tamil Nadu,India,Textile,,Not Available,-2212555,Not Available,"68866.2, 68866.2",Service Provider,"""yarn""","""Textile bleaching and dyeing""",,
Aravind A Traders,11.3393414,77.7227212,"Brough Road, Erode, Tamil Nadu, India",Erode,Tamil Nadu,India,Textile,,Not Available,Not Available,Not Available,"68866.2, 68866.2",Trader,"""yarn""","""Textile trading""",,
Valson Polyester,20.3732535,72.9136594,"Survey No. 51/1, Silvassa Road, Vapi, Vapi, Gujarat, India",Vapi,Gujarat,India,Textile,,https://valsonindia.com,-2430613,mail@valsonindia.com,"6886620.0, 0.0",Manufacturer,"""yarn""","""Polyester dyed yarn, texturizing""",,
Valson Industries,19.1070251,72.8816398,"28, Bldg No. 1, Mittal Ind. Estate, Andheri-Kurla Road, Andheri (E), Mumbai, Maharashtra, India",Mumbai,Maharashtra,India,Textile,,https://valsonindia.com,-28503949,mail@valsonindia.com,"13773240.0, 0.0",Manufacturer,"""yarn""","""Polyester textured yarn, cotton dyed yarn""",,
Arham Spinnig mills,28.6307909,77.2243039,"Ashoka Estate, Barakhamba Road, New Delhi / Panipat, Delhi / Haryana, India",New Delhi / Panipat,Delhi / Haryana,India,Textile,,Not Available,Not Available,Not Available,"0.0, 0.0",Manufacturer,"""yarn""","""Spinning (Cotton/Blended yarn)""",,
KMD Tex,11.1676029,77.6042342,"Chennimalai, Erode, Tamil Nadu, India",Erode,Tamil Nadu,India,Textile,,Not Available,Not Available,Not Available,"68866200.0, 172165500.0",Manufacturer,"""yarn""","""Fabrics""",,
Deepak Spinner-Baddi,30.9961779,76.7654601,"Plot No. 121, Industrial Area-I, Baddi, Himachal Pradesh, India",Baddi,Himachal Pradesh,India,Textile,,http://dsl-india.com,-245915,baddi@dsl-india.com,"282000.0, 176000.0",Manufacturer,"""yarn""","""Synthetic staple yarn, blended yarn""",,
Winsome Textiles -Baddi,30.9578258,76.7913558,"Plot No. 1, Industrial Area, Baddi, Himachal Pradesh, India",Baddi,Himachal Pradesh,India,Textile,,https://www.winsometextile.com,-245749,winsome@winsomegroup.com,"288000.0, 176000.0",Manufacturer,"""yarn""","""Melange yarn, raw white yarn, dyed yarn""",,
Auro Dyeing- Baddi,30.9444207,76.8035134,"Sai Road, Baddi, District Solan, Baddi, Himachal Pradesh, India",Baddi,Himachal Pradesh,India,Textile,,https://www.vardhman.com,-245969,mktg@vardhman.com,"294000.0, 182000.0",Service Provider,"""yarn""","""Fabric dyeing, finishing (Unit of Vardhman)""",,
"Dici Polyester, (D'Décor Group)",19.1055054,72.8797244,"Solitaire Corporate Park, Bldg No 14, Andheri (E) (Group HQ), Mumbai, Maharashtra, India",Mumbai,Maharashtra,India,Textile,,https://www.ddecor.com,-66781931,customercare@ddecor.com,"5164965.0, 0.0",Manufacturer,"""yarn""","""Polyester filament yarn, textured yarn""",,
Sportking-Ludhiana,30.8355845,75.9748066,"Village Kanech, Near Sahnewal, G.T. Road, Ludhiana, Punjab, India",Ludhiana,Punjab,India,Textile,,https://www.sportking.co.in,-2845526,info@sportking.co.in,"294000.0, 182000.0",Manufacturer,"""yarn""","""Cotton yarn, synthetic yarn, knitted ""Garment""""",,
Siyaram,19.793138,72.7363158,"Plot No H - 3/2, A Road, MIDC Tarapur, Taluka Palghar, Boisar (Palghar), Maharashtra, India",Boisar (Palghar),Maharashtra,India,Textile,,https://www.siyaram.com,-332344,william.fernandes@siyaram.com,"13773240.0, 0.0",Manufacturer,"""yarn""","""Suiting, shirting, ready-made ""Garment"", yarn""",,
Silkon synthetics,19.3125635,73.0348889,"1777, Bhairav Compound, Shelar Parol Road, Village Shelar, Bhiwandi, Maharashtra, India",Bhiwandi,Maharashtra,India,Textile,,Not Available,Not Available,Not Available,"10329930.0, 0.0",Manufacturer / Processor,"""yarn""","""Synthetic fabrics, cotton dyeing services""",,
ASM Process,11.1130359,77.3431408,"Tirupur Industrial Estate, Tirupur, Tamil Nadu, India",Tirupur,Tamil Nadu,India,Textile,,Not Available,Not Available,Not Available,"137732.4, 137732.4",Service Provider,"""yarn""","""Fabric processing""",,
R.K.Weaving,11.3669692,77.76042,"Pallipalayam, Erode, Tamil Nadu, India",Erode,Tamil Nadu,India,Textile,,Not Available,Not Available,Not Available,"137732400.0, 3443310000.0",Manufacturer,"""yarn""","""Woven fabrics""",,
R Arthanari Chettiyar,11.739957,78.0430241,"Salem Main Road, Salem, Tamil Nadu, India",Salem,Tamil Nadu,India,Textile,,Not Available,Not Available,Not Available,"103299300.0, 2582482500.0",Trader,"""yarn""","""Traditional silk and cotton trading""",,
Alc,11.6282994,78.1588197,"5/127, Erumapalayam Main Road, Salem, Tamil Nadu, India",Salem,Tamil Nadu,India,Textile,,https://www.alctex.com,-2470287,admin@alctex.com,"68866.2, 68866.2",Manufacturer,"""yarn""","""Yarn dyed fabrics (ALC Textile Pvt Ltd)""",,
Annamalai Chaya Salai,11.3673592,77.7076747,"Bhavani Road, Erode, Tamil Nadu, India",Erode,Tamil Nadu,India,Textile,,Not Available,Not Available,Not Available,"68866.2, 68866.2",Service Provider,"""yarn""","""Dyeing factory (Chaya Salai)""",,
Flora Dyeing,30.9169645,75.8946074,"Tajpur Road, Ludhiana, Punjab, India",Ludhiana,Punjab,India,Textile,,Not Available,Not Available,Not Available,"150000.0, 168000.0",Service Provider,"""yarn""","""Fabric dyeing""",,
Mahalaxmi-Ludhiana,30.8657044,75.93547,"Plot No. 1, Dyeing Complex, Focal Point, Ludhiana, Punjab, India",Ludhiana,Punjab,India,Textile,,Not Available,Not Available,Not Available,"156000.0, 170000.0",Service Provider,"""yarn""","""Fabric processing""",,
Raja Rajeshwari,11.05276,77.3585676,"Veerapandi, Tirupur, Tamil Nadu, India",Tirupur,Tamil Nadu,India,Textile,,Not Available,Not Available,Not Available,"137732.4, 137732.4",Service Provider,"""yarn""","""Fabric dyeing (Raja Rajeshwari Dyeing)""",,
Thangalakshmi Textiles ,11.62196,77.7429723,"Ammapet, Erode, Tamil Nadu, India",Erode,Tamil Nadu,India,Textile,,Not Available,Not Available,Not Available,"86082750.0, 2134852200.0",Manufacturer,"""yarn""","""Woven fabrics""",,
Birla Textiles -Baddi,30.9578258,76.7913558,"Plot No 81-82, Industrial Area, Phase II, Baddi, Himachal Pradesh, India",Baddi,Himachal Pradesh,India,Textile,,https://www.sutlejtextiles.com,-245929,birlamills@sutlejtextiles.com,"294000.0, 182000.0",Manufacturer,"""yarn""","""Synthetic blended dyed yarn (Unit of Sutlej)""",,
Nahar Mercerising- Lalru,30.5067842,76.7977534,"Nahar Industrial Enterprises, Village Jalalpur, Lalru, Lalru, Punjab, India",Lalru,Punjab,India,Textile,,https://owmnahar.com,-277004,fabric@owmnahar.com,"294000.0, 182000.0",Manufacturer / Processor,"""yarn""","""Mercerised yarn, fabric processing, dyeing""",,
ABC IMPEX,28.5317239,77.2766287,"Okhla Industrial Area, New Delhi, Delhi, India",New Delhi,Delhi,India,Textile,,Not Available,-26815475,Not Available,"150000.0, 186000.0",Exporter,"""yarn""","""Fabric and ""Garment"" exports""",,
VYTL-Baddi,30.9444207,76.8035134,"Sai Road, Baddi, District Solan, Baddi, Himachal Pradesh, India",Baddi,Himachal Pradesh,India,Textile,,https://www.vardhmanyarns.com,-245899,mktg@vardhman.com,"294000.0, 182000.0",Manufacturer,"""yarn""","""Sewing threads, industrial yarns""",,
Sivasakthi Threads,11.0768662,77.3414274,"Palladam Road, Tirupur, Tamil Nadu, India",Tirupur,Tamil Nadu,India,Textile,,Not Available,Not Available,Not Available,"103299.29999999999, 68866.2",Manufacturer,"""yarn""","""Sewing threads, embroidery threads""",,
Point Textile Yarn,11.1420033,77.3444569,"P.N. Road, Tirupur, Tamil Nadu, India",Tirupur,Tamil Nadu,India,Textile,,Not Available,Not Available,Not Available,"206598.59999999998, 172165.5",Trader,"""yarn""","""Hosiery yarn""",,
Shivam,21.1399524,72.8367776,"GIDC, Pandesara, Surat, Gujarat, India",Surat,Gujarat,India,Textile,,Not Available,-2894614,Not Available,"688662.0, 516496.5",Service Provider,"""yarn""","""Textile processing (Shivam Processors)""",,
Kanchan India limitted- Unit yarn dyeing,25.4433852,74.5714655,"Mandal, Bhilwara, Rajasthan, India",Bhilwara,Rajasthan,India,Textile,,http://www.kanchangroup.com,-241392,kanchanbhl@rediffmail.com,"6886620.0, 5164965.0",Service Provider,"""yarn""","""Yarn dyeing""",,
Donear Ind.-Yarn,19.124145,72.869598,"Donear House, 8th Floor, Plot No. A-50, MIDC, Andheri (East), Mumbai, Maharashtra, India",Mumbai,Maharashtra,India,Textile,,https://www.donear.com,-68348031,yarnsales@donear.com,"4476303.0, 3787641.0",Manufacturer,"""yarn""","""Cotton yarn, blended yarn, fancy yarn""",,
YKK India Pvt. Ltd.,28.4285684,76.991981,"Plot No. 698, Sector 37, Gurgaon / Bawal, Haryana, India",Gurgaon / Bawal,Haryana,India,Textile,,http://www.ykk.com,-4003366,info@ykk.com,"294000.0, 186000.0",Manufacturer,"""yarn""","""Zippers, fasteners, buttons""",,
Texplas Textile (I) Pvt Ltd.,29.9456906,78.1642478,"Haridwar, Haridwar, Uttarakhand, India",Haridwar,Uttarakhand,India,Textile,,Not Available,Not Available,Not Available,"150000.0, 160000.0",Manufacturer,"""yarn""","""Industrial fabrics, insulating materials""",,
Alok Industries,18.9985874,72.8292925,"Peninsula Business Park, Tower B, 2nd & 3rd Floor, Lower Parel, Mumbai, Maharashtra, India",Mumbai,Maharashtra,India,Textile,,https://www.alokind.com,-61786931,info@alokind.com,"20659860.0, 0.0",Manufacturer,"""yarn""","""Cotton yarn, apparel fabrics, home textiles, polyester yarn""",,
Oswal F M Hammerle,16.6113023,74.3528822,"Five Star MIDC, Kagal, Kolhapur, Maharashtra, India",Kolhapur,Maharashtra,India,Textile,,http://www.oswalgroup.com,-2305695,info@oswalgroup.com,"288000.0, 176000.0",Manufacturer,"""yarn""","""Yarn dyed shirting fabrics (West India)""",,
Monti Tessitura,16.6535086,74.3059546,"Village Tamgaon, Kagal, Kolhapur, Maharashtra, India",Kolhapur,Maharashtra,India,Textile,,http://www.monti.co.in,-2627917,info@monti.co.in,"150000.0, 179000.0",Manufacturer,"""yarn""","""High value cotton shirting fabrics (West India)""",,
Viva fab,21.1906175,72.8447691,"1st Floor, 2051, Golwala Market, Ring Road, Surat, Gujarat, India",Surat,Gujarat,India,Textile,,Not Available,Not Available,Not Available,"3443310.0, 0.0",Trader / Manufacturer,"""yarn""","""Filament yarn, cotton fabrics, woven fabrics""",,
Sreekar polyester,19.2926702,73.0423008,"House No 1177, Chotani Compound, Narpoli, Bhiwandi, Maharashtra, India",Bhiwandi,Maharashtra,India,Textile,,Not Available,Not Available,Not Available,"10329930.0, 0.0",Manufacturer,"""yarn""","""Polyester fabrics, synthetic textiles""",,
Manohar Processors (Dicitex Group),19.1604251,73.1865646,"Plot No G-7/2/1, MIDC Tarapur, Thane District, Boisar (Palghar), Maharashtra, India",Boisar (Palghar),Maharashtra,India,Textile,,https://dctex.com,Not Available,info@dctex.com,"5164965.0, 0.0",Manufacturer (Processing),"""yarn""","""Dyeing and processing services, fabric finishing""",,
Kottex ,21.0981933,72.9760615,"A/22-23, Gujarat Eco Textile Park, N.H. No. 8, Palsana, Surat, Gujarat, India",Surat,Gujarat,India,Textile,,https://www.kottex.com,-266986,info@kottex.com,"2065986.0, 1308457.8",Manufacturer,"""yarn""","""Synthetic fabrics, knitted fabrics""",,
Mehak Denim,22.9904751,72.5825461,"Narol Industrial Area, Ahmedabad, Gujarat, India",Ahmedabad,Gujarat,India,Textile,,Not Available,Not Available,Not Available,"248671.19999999998, 207226.0",Manufacturer,"""denim""","""Denim fabrics""",,
Oswal Denim- Bhopal,23.0531161,77.5467937,"Unit of Nahar Spinning Mills, Mandideep, Bhopal (Mandideep), Madhya Pradesh, India",Bhopal (Mandideep),Madhya Pradesh,India,Textile,,https://www.owmnahar.com,-240689,nsml@owmnahar.com,"294000.0, 182000.0",Manufacturer,"""denim""","""Denim fabric, cotton yarn""",,
Century Denim-Indore,18.9322453,72.8264378,"Industry House, 159, Churchgate Reclamation, Indore / Mumbai, Madhya Pradesh, India",Indore / Mumbai,Madhya Pradesh,India,Textile,,https://www.centurytextind.com,-22027501,textiles@centurytext.com,"294000.0, 186000.0",Manufacturer,"""denim""","""Denim fabrics, cotton textiles (Birla Century)""",,
Bhaskar Industries-Bhopal,23.0992796,77.5114731,"Village Mandideep, District Raisen, Bhopal (Mandideep), Madhya Pradesh, India",Bhopal (Mandideep),Madhya Pradesh,India,Textile,,https://www.bhaskarindustries.com,-412489,info@bhaskarindustries.com,"288000.0, 176000.0",Manufacturer,"""denim""","""Denim fabrics, flat finish fabrics, cotton textiles""",,
Raymond Uco,19.0861742,72.9226735,"I Think Lodha, 6th Floor, A-Tower, Chirag Nagar, Off Eastern Express Highway, Thane (W), Thane, Maharashtra, India",Thane,Maharashtra,India,Textile,,https://www.raymonddenim.com,-69378231,denim@raymond.in,"0.0, 24867.12",Manufacturer,"""denim""","""Denim fabrics, ring denim, stretch denim""",,
Nandan Denim,22.9604973,72.5596027,"Survey No. 198/1, 203/2, Saijpur-Gopalpur, Pirana Road, Piplej, Ahmedabad, Gujarat, India",Ahmedabad,Gujarat,India,Textile,,https://www.nandandenim.com,-25835543,info@nandandenim.com,"2072259.9999999998, 1865033.9999999998",Manufacturer,"""denim""","""Denim Fabrics, Shirting, Yarn""",,
Group Modern,22.902317,72.422567,"Modern Denim Ltd, Moraiya, Ahmedabad, Gujarat, India",Ahmedabad,Gujarat,India,Textile,,http://www.modernamdenim.com,-253516,info@modernamdenim.com,"294000.0, 186000.0",Manufacturer,"""denim""","""Denim fabrics, terry towels""",,
Vinod Denim,22.9983568,72.5794829,"Survey No. 222, Baherampura, Ahmedabad, Gujarat, India",Ahmedabad,Gujarat,India,Textile,,https://www.vinoddenim.com,-25323321,info@vinoddenim.com,"248671.19999999998, 207226.0",Manufacturer,"""denim""","""Denim fabrics, denim apparel""",,
Kanchan India limitted- Unit denim div,25.3355678,74.6026533,"Bhilwara Textile Market, Pur Road, Bhilwara, Rajasthan, India",Bhilwara,Rajasthan,India,Textile,,http://www.kanchangroup.com,-241391,kanchanbhl@rediffmail.com,"207226.0, 165780.8",Manufacturer,"""denim""","""Denim fabrics (Kanchan Group)""",,
Manomaya denim,25.4433852,74.5714655,"Village Mandal, Bhilwara, Rajasthan, India",Bhilwara,Rajasthan,India,Textile,,Not Available,Not Available,Not Available,"248671.19999999998, 186503.4",Manufacturer,"""denim""","""Denim fabrics""",,
Darpan Denim,23.0974358,72.5314579,"Narol-Sarkhej Highway, Ahmedabad, Gujarat, India",Ahmedabad,Gujarat,India,Textile,,Not Available,-25737765,darpan@vsnl.com,"62167.799999999996, 41445.2",Manufacturer,"""denim""","""Denim fabrics""",,
LNJ denim,23.5919892,74.1607228,"Village Mordi, PB No. 28, Banswara, Rajasthan, India",Banswara,Rajasthan,India,Textile,,https://lnjdenim.in,-234531,mktg.denim@lnjbhilwara.com,"103613.0, 45589.72",Manufacturer,"""denim""","""Denim fabrics (LNJ Bhilwara Group)""",,
Ultra Denim,26.3031046,73.0584597,"Survey No. 163/P, Plot No. 14/B, Village Bhetali, Taluka Bhiloda, Aravalli, Gujarat, India",Aravalli,Gujarat,India,Textile,,https://ultradenim.com,-296705,info@ultradenim.com,"414452.0, 248671.19999999998",Manufacturer,"""denim""","""Denim fabrics, open end yarn""",,
Mafatlal Denim,18.9288968,72.8266416,"Mafatlal House, 5th Floor, H.T. Parekh Marg, Backbay Reclamation, Mumbai, Maharashtra, India",Mumbai,Maharashtra,India,Textile,,https://www.mafatlals.com,-67713731,contact@mafatlals.com,"580232.7999999999, 455897.19999999995",Manufacturer,"""denim""","""Denim fabrics, cotton textiles""",,
Suryalakshmi,17.4424741,78.4897344,"Surya Towers, 6th Floor, 105 Sardar Patel Road, Secunderabad, Telangana, India",Secunderabad,Telangana,India,Textile,,http://www.suryalakshmi.com,-27819805,slcmltd@suryalakshmi.com,"0.0, 414452.0",Manufacturer,"""denim""","""Denim fabric, cotton yarn, power plant""",,
ETCO denim,19.1174394,72.8632165,"S-13/14, Pinnacle Business Park, Shanti Nagar, MIDC, Mahakali Caves Road, Andheri (E), Mumbai, Maharashtra, India",Mumbai,Maharashtra,India,Textile,,http://etcodenim.com,-40342153,cirpetco@gmail.com,"288000.0, 186000.0",Manufacturer,"""denim""","""Denim fabrics, open end yarn, ring spun yarn""",,
"Varshini ""Garment"" (Varshini Exports)",11.0300981,77.3409067,"SF.NO. 238, Near Sakthi Appartment, Kunnangalpalayam Pirivu, Palladam Road, Tirupur - 641605, Tirupur, Tamil Nadu, India",Tirupur,Tamil Nadu,India,Textile,,https://www.tea-india.org/varshiniexports,+91 98427 71196,visu@varshiniexport.com,"282000.0, 176000.0",Manufacturer & Exporter,,"""T-Shirts""",,
Surya Creation,11.1122919,77.3337932,"10, Muthusamy Street, 2nd Cross Extn., Odakkadu, Tirupur - 641602, Tirupur, Tamil Nadu, India",Tirupur,Tamil Nadu,India,Textile,,,+91 91506 71250,newsuryacreation@yahoo.com,"150000.0, 174000.0",Manufacturer,,"""Readymade ""Garment""""",,
"Sunray ""Garment""",11.0465513,77.3164025,"8/365a, Anna Nagar, Arulpuram, Karaipudur Village, Tirupur - 641605, Tirupur, Tamil Nadu, India",Tirupur,Tamil Nadu,India,Textile,,,+91 98422 55667,,"150000.0, 174000.0",Manufacturer,,"""Cotton Fabric""",,
SunKnit Fashions,11.1004365,77.3622254,"S.F.NO: 250/1, Sri Kanchi Kamatchi Nagar, Kangayampalayam Pudur, Tirupur - 641604, Tirupur, Tamil Nadu, India",Tirupur,Tamil Nadu,India,Textile,,https://sunknitfashions.com/,+91 93600 39949,samy@sunknitfashions.com,"282000.0, 176000.0",Manufacturer,,"""Knitted ""Garment""""",,
"Sun ""Garment"" (Sunbala ""Garment"")",11.0055954,77.5721626,"24, Ayyasamy Nagar Colony, 3rd Street, P.K. Road, Kangayam, Tirupur Dist - 638701, Tirupur, Tamil Nadu, India",Tirupur,Tamil Nadu,India,Textile,,"https://www.sunbala""Garment"".com/",+91 88386 97958,"sunbala""Garment""@gmail.com","282000.0, 174000.0",Manufacturer,,"""Readymade ""Garment""""",,
"Summer Breeze ""Garment""",11.10611,77.339485,"Tirupur (Specific street address not listed on site), Tirupur, Tamil Nadu, India",Tirupur,Tamil Nadu,India,Textile,,https://summerbreeze.in/,+91 421 434 6280,info@summerbreeze.in,"288000.0, 176000.0",Manufacturer & Exporter,,"""Men's Wear""",,
Sudha Exports (Sudha Fashions),11.0900545,77.3523429,"19/41, 1st Street, Dharapuram Road, Tirupur - 641604, Tirupur, Tamil Nadu, India",Tirupur,Tamil Nadu,India,Textile,,,+91 98430 22222,,"150000.0, 174000.0",Retailer,,"""Kids Wear""",,
Subi Exports,11.1328612,77.3281402,"No. 21, G1, Sivakami Nagar, Opp UK Tex, Gandhi Nagar PO, Tirupur - 641603, Tirupur, Tamil Nadu, India",Tirupur,Tamil Nadu,India,Textile,,,+91 99999 88888,,"150000.0, 174000.0",Retailer/Exporter,,"""Kids Readymade ""Garment""""",,
"Sriram ""Garment"" (Sriram Fashions)",11.1129392,77.3480324,"21/23, Venkatachalapathi Elementary School Street, Kongunagar, Tirupur - 641607, Tirupur, Tamil Nadu, India",Tirupur,Tamil Nadu,India,Textile,,https://sriramfashions.com/,+91 421 425 5655,arun@sriramfashions.com,"282000.0, 176000.0",Exporter,,"""Men's Wear""",,
Sri Vishnu Textiles (Shri Vishnu Fabrics),11.1094572,77.3510472,"No: 14, K.P.N Colony, 3rd Street, Anna Nagar Extn, Tirupur - 641601, Tirupur, Tamil Nadu, India",Tirupur,Tamil Nadu,India,Textile,,https://www.shrivishnufabrics.net/,+91 73151 21894,,"282000.0, 176000.0",Manufacturer,,"""Lycra Fabric""",,
Sree Rahavendra Exports,11.1307924,77.3295484,"nan, No. 14/6, Kandasamy Layout, Pitchapalayam, Pudhur PO, Tirupur - 641603, Tirupur, Tamil Nadu","No. 14/6, Kandasamy Layout, Pitchapalayam, Pudhur PO, Tirupur - 641603",Tirupur,Tamil Nadu,Textile,,,,India,"150000.0, 174000.0",+91 98941 88697,,"""Apparel""",,
Sree Kumran Knits,11.0747306,77.3698592,"No: 371, SRT Compound, Dharapuram Road, Tirupur - 641605, Tirupur, Tamil Nadu, India",Tirupur,Tamil Nadu,India,Textile,,,+91 98430 67890,,"150000.0, 174000.0",Manufacturer,,"""Pants""",,
Sree Krishna Knits (Sri Krishna Knittings),11.0992545,77.4400774,"S F No 27/1, Mudalipalayam Post, Tirupur - 641606, Tirupur, Tamil Nadu, India",Tirupur,Tamil Nadu,India,Textile,,,+91 98422 33333,,"150000.0, 174000.0",Manufacturer,,"""Cotton Yarn""",,
Sree Guha Clothings,11.099408,77.3198141,"nan, No. 2/647B, Venus Garden, Andipalayam, Mangalam Road, Tirupur - 641687, Tirupur, Tamil Nadu","No. 2/647B, Venus Garden, Andipalayam, Mangalam Road, Tirupur - 641687",Tirupur,Tamil Nadu,Textile,,,,India,"150000.0, 174000.0",+91 98431 12345,,"""Apparel""",,
Sree Balaji Exim,11.091197,77.3611286,"SF No. 289, Somu Layout, Perichipalayam South, Dharapuram Road, Tirupur - 641608, Tirupur, Tamil Nadu, India",Tirupur,Tamil Nadu,India,Textile,,https://sreebalajiintl.com/,+91 96777 82627,ceo@sreebalajiintl.com,"282000.0, 176000.0",Manufacturer & Exporter,,"""Ladies ""Garment""""",,
Spiro Exports,11.096141,77.3524075,"No. 29, Town Extension, 4th Street, Tirupur - 641604, Tirupur, Tamil Nadu, India",Tirupur,Tamil Nadu,India,Textile,,,+91 98430 55555,,"150000.0, 174000.0",Manufacturer & Exporter,,"""Laundry Chemicals""",,
E Land fashion,11.2027974,77.3277875,"Plot No. 1, Netaji Apparel Park, Eettiveerampalayam, New Tirupur, Tirupur, Tamil Nadu, India",Tirupur,Tamil Nadu,India,Textile,,Not Available,-2357330,Not Available,"150000.0, 176000.0",Manufacturer,"""yarn ,woven""","""Readymade ""Garment"", fashion apparel""",,
Sunil dyeing,21.2158216,72.8365145,"Plot No-4, Madhav Baug, Vastadevdi Road, Katargam, Surat, Gujarat, India",Surat,Gujarat,India,Textile,,https://www.sunilgroup.com,Not Available,Not Available,"0.0, 47502.36",Service Provider,"""woven""","""Fabric dyeing, textile printing services""",,
Microinterlinings,19.1034475,73.0121835,"A-752, TTC MIDC Indl. Area, Thane Belapur Road, Khairne, Navi Mumbai, Maharashtra, India",Navi Mumbai,Maharashtra,India,Textile,,http://talcofuse.com,-41579931,microintpl@hotmail.com,"0.0, 197926.5",Manufacturer,"""woven""","""Fusible interlinings, non-woven interlinings""",,
Shrijee lifestyle,19.1128048,72.865968,"A-504, Dynasty Business Park, Andheri-Kurla Road, Andheri (East), Mumbai, Maharashtra, India",Mumbai,Maharashtra,India,Textile,,https://www.shrijee.com,-40500931,sales@shrijee.com,"0.0, 395853.0",Manufacturer / Exporter,"""woven""","""Embroidery fabrics, ""Garment"", sugar machinery textiles div""",,
NSL textiles,17.4118321,78.4360216,"NSL Icon, 4th Floor, Road No. 12, Banjara Hills, Hyderabad, Telangana, India",Hyderabad,Telangana,India,Textile,,https://www.nsltextiles.com,-40514393,info@nsltextiles.com,"2639020.0, 0.0",Manufacturer,"""woven""","""Cotton yarn, greige fabric, processed fabric, ""Garment""""",,
"D'Décor Exports, (D'Décor Group)",19.1117627,72.8607176,"Solitaire Corporate Park, S-14, 5th Floor, Guru Hargovindji Marg, Chakala, Andheri (E), Mumbai, Maharashtra, India",Mumbai,Maharashtra,India,Textile,,https://www.ddecor.com,-61152456,exports@ddecor.com,"0.0, 131951.0",Exporter,"""woven""","""Curtains, upholstery, bedding, ""Rugs"", wallpapers""",,
"D'Décor Home Fabrics, Unit F6 (Fabric), (D'Décor Group)",19.7840701,72.724553,"Plot No. G-15, No. 1 & 2, MIDC Industrial Area, Tarapur, Boisar (Palghar), Maharashtra, India",Boisar (Palghar),Maharashtra,India,Textile,,https://www.ddecor.com,Not Available,customercare@ddecor.com,"0.0, 197926.5",Manufacturer,"""woven""","""Woven fabrics, home furnishing fabrics (Factory Unit)""",,
Vertex Fabrics (The Ver Tex),11.1017974,77.3530859,"40-A, Vanakarar Building, Big Bazaar Street, Tirupur - 641604, Tirupur, Tamil Nadu, India",Tirupur,Tamil Nadu,India,Textile,,https://tea-india.org/profiles/vertex/,+91 93630 12115,thevertextirupur@gmail.com,"282000.0, 176000.0",Manufacturer,,"""""Garment""""",,
Kajal,23.0974358,72.5314579,"Narol-Sarkhej Highway, Ahmedabad, Gujarat, India",Ahmedabad,Gujarat,India,Textile,,Not Available,-25732210,Not Available,"197926.5, 131951.0",Service Provider,"""woven""","""Textile processing (Kajal Synthetics)""",,
BMP,22.9904751,72.5825461,"Narol Industrial Area, Ahmedabad, Gujarat, India",Ahmedabad,Gujarat,India,Textile,,Not Available,Not Available,Not Available,"263902.0, 197926.5",Service Provider,"""woven""","""Textile dyeing and printing""",,
Ranka Texfab,21.1834557,72.8304312,"Ring Road, Surat, Gujarat, India",Surat,Gujarat,India,Textile,,Not Available,-2345725,Not Available,"263902.0, 197926.5",Trader,"""woven""","""Fabric trading, wholesale""",,
Balkrishna,19.793138,72.7363158,"Balkrishna Synthetics, Tarapur MIDC, Boisar, Maharashtra, India",Boisar,Maharashtra,India,Textile,,https://www.bkt-tires.com,-66663731,synthetics@bkt-tires.com,"461828.5, 395853.0",Manufacturer,"""woven""","""Woven fabrics, processing""",,
Bajaj,23.0046791,72.579476,"Behrampura, Ahmedabad, Ahmedabad, Gujarat, India",Ahmedabad,Gujarat,India,Textile,,Not Available,-25325543,Not Available,"263902.0, 237511.80000000002",Service Provider,"""woven""","""Fabric processing (Bajaj Processors)""",,
Anjani Synthetics,23.0055298,72.5787501,"Plot No 140, Pirana Road, Piplej, Ahmedabad, Gujarat, India",Ahmedabad,Gujarat,India,Textile,,http://www.anjanisynthetics.com,-25710444,info@anjanisynthetics.com,"395853.0, 329877.5",Service Provider,"""woven""","""Textile processing, printing, dyeing""",,
Swan Energy,18.9350589,72.8414396,"6, Feltham House, Ballard Estate, Mumbai, Maharashtra, India",Mumbai,Maharashtra,India,Textile,,https://www.swan.co.in,-40587231,swan@swan.co.in,"395853.0, 263902.0",Manufacturer,"""woven""","""Textile processing, energy (Formerly Swan Mills)""",,
"Welsupn, Anjar",23.1345878,70.0779248,"Welspun City, Village Versamedi, Anjar, Kutch, Gujarat, India",Kutch,Gujarat,India,Textile,,https://www.welspunindia.com,-663856,investor@welspun.com,"294000.0, 186000.0",Manufacturer,"""woven, towel""","""Terry towels, bed linen, ""Rugs"", carpets""",,
Jindal,23.0250957,72.6704259,"Jindal Worldwide Ltd, Suryarath, Ashram Road, Ahmedabad, Gujarat, India",Ahmedabad,Gujarat,India,Textile,,https://www.jindaltextiles.com,-26584028,info@jindaltextiles.com,"395853.0, 329877.5",Manufacturer,"""woven""","""Denim fabrics, bottom weights, shirting""",,
Aarvee,22.9753604,72.5590989,"191, Shahwadi, Narol-Sarkhej Highway, Ahmedabad, Gujarat, India",Ahmedabad,Gujarat,India,Textile,,http://www.aarvee-denims.com,-30416988,info@aarvee-denims.com,"923657.0, 79170.6",Manufacturer,"""denim, woven""","""Denim fabrics, cotton trousers""",,
SKNL,18.9966108,72.8242368,"Marathon Innova, Lower Parel, Mumbai, Maharashtra, India",Mumbai,Maharashtra,India,Textile,,http://www.sknl.co.in,-24930111,info@sknl.co.in,"263902.0, 105560.8",Manufacturer,"""woven, yarn""","""Suiting, shirting, home textiles (S. Kumars Nationwide)""",,
Group Century,18.9292626,72.8257454,"Industry House, 159, Churchgate Reclamation, Mumbai, Maharashtra, India",Mumbai,Maharashtra,India,Textile,,https://www.centurytextind.com,-22027501,textiles@centurytext.com,"237511.80000000002, 197926.5",Manufacturer,"""woven""","""Cotton fabrics, denim, rayon (Birla Century)""",,
Vishal,23.0385045,72.5127497,"Shanti Corporate House, Ranip, Ahmedabad, Gujarat, India",Ahmedabad,Gujarat,India,Textile,,https://www.vishalfabricsltd.com,-27571099,info@vishalfabrics.com,"1187559.0, 1055608.0",Manufacturer,"""woven""","""Denim fabrics, printed fabrics (Chiripal Group)""",,
Shanti Textile,23.017687,72.6001477,"New Cloth Market, Ahmedabad, Gujarat, India",Ahmedabad,Gujarat,India,Textile,,Not Available,-22134432,Not Available,"1319510.0, 1187559.0",Trader/Manufacturer,"""woven, knit""","""Fabric Trading, Wholesale""",,
Arvind OG,23.0516632,72.6268143,"Naroda Road, Ahmedabad, Gujarat, India",Ahmedabad,Gujarat,India,Textile,,https://www.arvind.com,-68267988,info@arvind.com,"294000.0, 186000.0",Manufacturer,"""Non-woven""","""Denim, Cotton Fabrics (Arvind Limited Unit)""",,
Group Arvind,23.0516632,72.6268143,"Naroda Road, Ahmedabad, Gujarat, India",Ahmedabad,Gujarat,India,Textile,,https://www.arvind.com,-68267988,info@arvind.com,"2639020.0, 2375118.0",Manufacturer,"""woven, knit, denim, yarn""","""Denim, Woven Fabrics, Voiles, ""Garment""""",,
Century Paper -Ghaziabad,28.6331684,77.4730653,"Century House, Lalkuan, Ghaziabad, Uttar Pradesh, India",Ghaziabad,Uttar Pradesh,India,Textile,,https://www.centurypulpandpaper.com,-256964,sales@centurypaper.com,"294000.0, 186000.0",Manufacturer,,"""Pulp, Paper, Board, Tissue""",,
Shre Shyam Paper -Kashipur,29.2049593,78.9495702,"Village 4th KM Stone, Moradabad Road, Kashipur, Uttarakhand, India",Kashipur,Uttarakhand,India,Textile,,https://www.shreeshyampulp.com,-281411,info@shreeshyampulp.com,"288000.0, 176000.0",Manufacturer,,"""Kraft Paper, Packaging Board""",,
Setiya Paper -Amritsar,31.6339793,74.8722642,"Village Rupana, Muktsar (HQ), Muktsar / Amritsar, Punjab, India",Muktsar / Amritsar,Punjab,India,Textile,,https://www.satiagroup.com,-263543,satia.paper@satiagroup.com,"294000.0, 182000.0",Manufacturer,,"""Writing Paper, Photocopier Paper (Likely reference to Satia Industries)""",,
Khanna Paper -Amritsar,31.6632935,74.8739463,"Fatehgarh Road, Amritsar, Punjab, India",Amritsar,Punjab,India,Textile,,https://www.khannapaper.com,-2421314,marketing@khannapaper.com,"288000.0, 176000.0",Manufacturer,,"""Newsprint, Board, Writing Paper""",,
Vishal Paper -Jullandhar,30.5245806,75.8783443,"Village Mubarikpur, Malerkotla, Jalandhar / Malerkotla, Punjab, India",Jalandhar / Malerkotla,Punjab,India,Textile,,http://www.vishalpaper.com,-235818,vishalpaper@yahoo.com,"288000.0, 176000.0",Manufacturer,,"""Newsprint, Writing Printing Paper""",,
Reliance,23.0685865,72.6535961,"Naroda, Ahmedabad (Textile Complex), Ahmedabad, Gujarat, India",Ahmedabad,Gujarat,India,Textile,,https://www.ril.com,-22821988,info@ril.com,"197926.5, 131951.0",Manufacturer,"""woven, fibre""","""Vimal brand fabrics, suiting, shirting, automotive textiles""",,
Jagdu,23.017687,72.6001477,"New Cloth Market, Ahmedabad, Gujarat, India",Ahmedabad,Gujarat,India,Textile,,Not Available,Not Available,Not Available,"52780.4, 26390.2",Trader/Processor,"""woven""","""Screen printing, fabric trading""",,
KK Interlining,20.361689,72.9331402,"GIDC, Vapi, Valsad, Gujarat, India",Valsad,Gujarat,India,Textile,,Not Available,-2432391,Not Available,"52780.4, 39585.3",Manufacturer,"""woven""","""Fused interlining, textile accessories""",,
Sameer synthetics,23.0974358,72.5314579,"Narol-Sarkhej Highway, Ahmedabad, Gujarat, India",Ahmedabad,Gujarat,India,Textile,,Not Available,Not Available,Not Available,"263902.0, 197926.5",Service Provider,"""woven""","""Textile processing""",,
Arrow Clothing,23.0422856,72.6134548,"Arvind Ltd, Naroda Road, Ahmedabad, Gujarat, India",Ahmedabad,Gujarat,India,Textile,,https://www.arvind.com,-30137988,arrow.care@arvind.com,"294000.0, 186000.0",Manufacturer,"""Garment""","""Formal shirts, trousers (Brand of Arvind)""",,
Soma,23.0220301,72.6218075,"Rakhial Road, Ahmedabad, Gujarat, India",Ahmedabad,Gujarat,India,Textile,,http://www.somatextiles.com,-22743273,soma@somatextiles.com,"131951.0, 79170.6",Manufacturer,"""woven""","""Denim, cotton yarn, fabrics""",,
Jagdamba,23.2481618,72.6412865,"Plot No 106, Sector 25, Gandhinagar, Gujarat, India",Gandhinagar,Gujarat,India,Textile,,http://www.jagdambafabrics.com,-23287765,info@jagdambafabrics.com,"329877.5, 263902.0",Manufacturer,"""woven""","""Fabrics, suiting, shirting""",,
Prakash,23.0974358,72.5314579,"Narol-Sarkhej Highway, Ahmedabad, Gujarat, India",Ahmedabad,Gujarat,India,Textile,,Not Available,-25734432,Not Available,"461828.5, 395853.0",Service Provider,"""woven""","""Textile processing""",,
Mangal,23.0974358,72.5314579,"Narol-Sarkhej Highway, Ahmedabad, Gujarat, India",Ahmedabad,Gujarat,India,Textile,,https://www.mangaltextile.com,-25733321,info@mangaltextile.com,"923657.0, 791706.0",Service Provider,"""woven, knit""","""Textile processing, dyeing""",,
Gimatex,20.5516683,78.8418289,"MDC, Hinganghat, Wardha, Maharashtra, India",Wardha,Maharashtra,India,Textile,,https://www.gimatex.co.in,-251284,info@gimatex.co.in,"197926.5, 131951.0",Manufacturer,"""woven""","""Cotton yarn, ginned cotton, fabrics""",,
Mahalaxmi,23.0974358,72.5314579,"Narol-Sarkhej Highway, Ahmedabad, Gujarat, India",Ahmedabad,Gujarat,India,Textile,,https://www.mahalaxmigroup.com,-25731099,info@mahalaxmigroup.com,"395853.0, 329877.5",Service Provider,"""woven""","""Textile processing, fabrics (Mahalaxmi Rubtech)""",,
Gopi,22.972987,72.603837,"Survey No. 302, Isanpur-Narol Road, Ahmedabad, Gujarat, India",Ahmedabad,Gujarat,India,Textile,,http://www.gopisynthetics.com,-25732210,accounts@gopiindia.com,"527804.0, 461828.5",Manufacturer,"""woven""","""Synthetics, cotton fabrics (Gopi Synthetics)""",,
Raguvir synthetics,22.9877211,72.4931378,"Raghuvir House, Narol-Sarkhej Highway, Ahmedabad, Gujarat, India",Ahmedabad,Gujarat,India,Textile,,http://www.raghuvir.com,-25715543,info@raghuvir.com,"263902.0, 197926.5",Manufacturer,"""woven""","""Textile processing, dyeing, printing""",,
Pradeep Overseas,22.9987232,72.574563,"Survey No 106, 107, 108, Piplaj, Piplaj-Pirana Road, Ahmedabad, Gujarat, India",Ahmedabad,Gujarat,India,Textile,,http://www.pradeepoverseas.com,-25714028,info@pradeepoverseas.com,"395853.0, 263902.0",Manufacturer,"""woven""","""Bed sheets, comforters, cotton fabrics""",,
Mohit Paper,29.3809064,78.1406913,"9 KM Stone, Nagina Road, Bijnor, Uttar Pradesh, India",Bijnor,Uttar Pradesh,India,Textile,,http://www.mohitpaper.in,-263513,info@mohitpaper.in,"288000.0, 176000.0",Manufacturer,,"""Writing Paper, Printing Paper""",,
Evershine Paper- Ludhiana,30.9315106,75.8710619,"Rahon Road, Ludhiana, Punjab, India",Ludhiana,Punjab,India,Textile,,Not Available,-2691181,Not Available,"150000.0, 168000.0",Manufacturer,,"""Kraft Paper, Board""",,
Mohan Fiber- Dera bassi,30.6075781,76.8524637,"Village Mubarikpur, Tehsil Dera Bassi, Derabassi, Punjab, India",Derabassi,Punjab,India,Textile,,http://www.mohanfibre.com,-281951,info@mohanfibre.com,"282000.0, 176000.0",Manufacturer,,"""Moulded Fibre Trays, Egg Trays""",,
Kuntam Paper -Hoshiarpur,31.2983757,76.0725497,"Village Saila Khurd, Hoshiarpur, Punjab, India",Hoshiarpur,Punjab,India,Textile,,https://www.kuantumpapers.com,-232034,kuantumcorp@kuantumpapers.com,"294000.0, 182000.0",Manufacturer,,"""Writing Printing Paper, Copier Paper""",,
Ruchira Paper -Kala amb,30.4992091,77.2070025,"Trilokpur Road, Kala Amb, Kala Amb, Himachal Pradesh, India",Kala Amb,Himachal Pradesh,India,Textile,,https://www.ruchirapapers.com,-241712,info@ruchirapapers.com,"294000.0, 182000.0",Manufacturer,,"""Writing Paper, Kraft Paper, Copier Paper""",,
Hafijia,25.2649673,82.558725,"G.T. Road, Aurai, Bhadohi, Uttar Pradesh, India",Bhadohi,Uttar Pradesh,India,Textile,,http://www.hafizia.com,-263211,info@hafizia.com,"282000.0, 176000.0",Manufacturer,,"""Hand Tufted Carpets, Handloom ""Rugs""""",,
Pushpanjali Saree,26.921113,75.8278618,"Johari Bazar, Jaipur, Rajasthan, India",Jaipur,Rajasthan,India,Textile,,Not Available,-2561161,Not Available,"150000.0, 172000.0",Retailer/Wholesaler,,"""Sarees, Lehengas, Bandhani""",,
Amarlata Print,26.8191641,75.7659513,"Sanganer, Jaipur, Rajasthan, India",Jaipur,Rajasthan,India,Textile,,Not Available,Not Available,Not Available,"150000.0, 172000.0",Service Provider,,"""Block Printing, Screen Printing""",,
Art Palace,26.9496657,75.8409797,"Amer Road, Jaipur, Rajasthan, India",Jaipur,Rajasthan,India,Textile,,Not Available,-2633383,artpalace@gmail.com,"150000.0, 172000.0",Manufacturer,,"""Textile Handicrafts, Vintage Textiles""",,
Kas Carpet,25.3861475,82.5827827,"Bhadohi Road, Bhadohi, Uttar Pradesh, India",Bhadohi,Uttar Pradesh,India,Textile,,Not Available,Not Available,Not Available,"150000.0, 170000.0",Manufacturer,,"""Carpets, ""Rugs""""",,
ABC Carpet,25.2565897,82.6509982,"G.T. Road, Mirzapur, Mirzapur, Uttar Pradesh, India",Mirzapur,Uttar Pradesh,India,Textile,,http://www.abccarpet.com,-225452,info@abccarpet.com,"288000.0, 176000.0",Manufacturer,,"""Hand Tufted Carpets, Woolen ""Rugs""""",,
OBTEE,25.1591367,82.5892056,"Bisunderpur, Civil Lines, Mirzapur, Uttar Pradesh, India",Mirzapur,Uttar Pradesh,India,Textile,,https://www.obeetee.com,-257653,info@obeetee.com,"294000.0, 182000.0",Manufacturer,,"""Luxury ""Rugs"", Hand Knotted Carpets""",,
Managalm Intertech,26.5393449,80.4878195,"Unnao Industrial Area, Unnao, Uttar Pradesh, India",Unnao,Uttar Pradesh,India,Textile,,Not Available,-2823757,Not Available,"150000.0, 164000.0",Manufacturer,,"""""Technical Textile""s, Industrial Fabrics""",,
Raja Textile,30.9235264,75.868908,"Sunder Nagar, Ludhiana, Punjab, India",Ludhiana,Punjab,India,Textile,,Not Available,-2605625,Not Available,"150000.0, 168000.0",Manufacturer,,"""Shawls, Lohis, Fabrics""",,
N.R International,25.2649673,82.558725,"G.T. Road, Aurai, Bhadohi, Uttar Pradesh, India",Bhadohi,Uttar Pradesh,India,Textile,,http://www.nrinternational.in,-255573,info@nrinternational.in,"282000.0, 176000.0",Exporter,,"""Hand Knotted Carpets, ""Rugs"", Dhurries""",,
Ambica Sales corpporation,26.4662967,80.3550106,"General Ganj, Kanpur, Uttar Pradesh, India",Kanpur,Uttar Pradesh,India,Textile,,Not Available,-2314865,Not Available,"150000.0, 166000.0",Trader,,"""Fabric Wholesaler""",,
Aakash fashion,21.1834557,72.8304312,"Ring Road, Surat, Gujarat, India",Surat,Gujarat,India,Textile,,Not Available,-2326836,Not Available,"237511.80000000002, 197926.5",Manufacturer,"""woven, knit""","""Fashion fabrics, sarees""",,
Ahmedabad Dyg,23.0443555,72.5841409,"Dudheshwar Road, Ahmedabad, Gujarat, India",Ahmedabad,Gujarat,India,Textile,,Not Available,-25624432,Not Available,"237511.80000000002, 197926.5",Service Provider,"""woven, knit""","""Fabric dyeing and printing""",,
Kumar Cotton,23.0516632,72.6268143,"Naroda Road, Ahmedabad, Gujarat, India",Ahmedabad,Gujarat,India,Textile,,Not Available,Not Available,Not Available,"197926.5, 184731.4",Manufacturer,"""woven, knit""","""Cotton yarn, fabrics""",,
Keyal Synthetics,21.1601819,72.7972898,"Udhana Magdalla Road, Surat, Gujarat, India",Surat,Gujarat,India,Textile,,Not Available,-2635725,Not Available,"150000.0, 179000.0",Manufacturer,"""woven""","""Synthetic fabrics, sarees""",,
Gujarat Flotex,23.2782001,72.4320175,"Kadi Chhatral Road, Chhatral, Gandhinagar, Gujarat, India",Gandhinagar,Gujarat,India,Textile,,https://gujaratflotex.com,-9638201020,info@gujaratflotex.com,"288000.0, 176000.0",Manufacturer,"""flock""","""""flock""ed fabrics, upholstery, ""Technical Textile""s""",,
Vinny,23.0974358,72.5314579,"Narol-Sarkhej Highway, Ahmedabad, Gujarat, India",Ahmedabad,Gujarat,India,Textile,,http://www.vinnyoverseas.in,-25736654,info@vinnyoverseas.in,"158341.2, 131951.0",Manufacturer,"""woven""","""Denim, cotton fabrics (Vinny Overseas)""",,
V R Polyfab,21.1834557,72.8304312,"Ring Road, Surat, Gujarat, India",Surat,Gujarat,India,Textile,,Not Available,-2342392,Not Available,"197926.5, 158341.2",Manufacturer,"""woven""","""Polyester fabrics, sarees""",,
Bhagyodaya,23.017687,72.6001477,"New Cloth Market, Ahmedabad, Gujarat, India",Ahmedabad,Gujarat,India,Textile,,Not Available,-22165543,Not Available,"197926.5, 158341.2",Trader,"""woven""","""Wholesale fabrics (Bhagyodaya Fashions)""",,
Sinhal,22.9904751,72.5825461,"Narol Industrial Area, Ahmedabad, Gujarat, India",Ahmedabad,Gujarat,India,Textile,,Not Available,Not Available,Not Available,"158341.2, 131951.0",Service Provider,"""woven""","""Fabric dyeing, printing (Sinhal Dyeing)""",,
